UF,MUNICIPIO,ESTABELECIMENTO,LOGRADOURO,NUMERO,BAIRRO,ENDERECO_COMPLETO,latitude,longitude,address,point,cep
PR,ABATIA,CENTRO DE SAUDE ABATIA,RUA APARECIDA BECKER LOURENCO,35,RESIDENCIAL BURITI,"RUA APARECIDA BECKER LOURENCO, RESIDENCIAL BURITI, ABATIA, PR, BRASIL",-7.97919,-35.06941,"Rua Palmeiras Residencial Tiuma, 54720, São Lourenço da Mata","7 58m 45.084s S, 35 4m 9.876s W",54720
PR,ABATIA,CENTRO ODONTOLOGICO DR VICENTE H ALBANO,RUA APARECIDA BECKER LOURENCO,35,RESIDENCIAL BURITI,"RUA APARECIDA BECKER LOURENCO, RESIDENCIAL BURITI, ABATIA, PR, BRASIL",-7.97919,-35.06941,"Rua Palmeiras Residencial Tiuma, 54720, São Lourenço da Mata","7 58m 45.084s S, 35 4m 9.876s W",54720
PR,ADRIANOPOLIS,UBS DAVID ARMSTRONG,RUA 4,S/N,PORTO NOVO,"RUA 4, PORTO NOVO, ADRIANOPOLIS, PR, BRASIL",-22.92829,-42.42252,"Rua Praia Porto Novo, 4, 28992-021, Saquarema","22 55m 41.844s S, 42 25m 21.072s W",28992-021
PR,ADRIANOPOLIS,UBS PEDRO RODRIGUES,RUA RUBENS SELBMAN,S/N,VILA MOTA,"RUA RUBENS SELBMAN, VILA MOTA, ADRIANOPOLIS, PR, BRASIL",-24.01196,-46.43458,"Rua Rubens Ferreira Martins, 11702-280, Praia Grande","24 0m 43.056s S, 46 26m 4.488s W",11702-280
PR,ADRIANOPOLIS,CENTRO DE SAUDE OLIMPIO GONCALVES DOS SANTOS,RUA BENEDITO BATISTA DIAS,25,CENTRO,"RUA BENEDITO BATISTA DIAS, CENTRO, ADRIANOPOLIS, PR, BRASIL",-24.65723,-48.99141,"Rua Benedito Dias Batista, 83490-000, Adrianópolis","24 39m 26.028s S, 48 59m 29.076s W",83490-000
PR,ADRIANOPOLIS,PA ADRIANOPOLIS,RUA BENEDITO BATISTA DIAS,S/N,CENTRO,"RUA BENEDITO BATISTA DIAS, CENTRO, ADRIANOPOLIS, PR, BRASIL",-24.65723,-48.99141,"Rua Benedito Dias Batista, 83490-000, Adrianópolis","24 39m 26.028s S, 48 59m 29.076s W",83490-000
PR,AGUDOS DO SUL,NUCLEO DE ESTRATEGIA DE SAUDE DA FAMILIA RUI BARBOSA,RUA RUI BARBOSA,S/N,CENTRO,"RUA RUI BARBOSA, CENTRO, AGUDOS DO SUL, PR, BRASIL",-25.98872,-49.33303,"Rua Rui Barbosa, 83850-000, Agudos do Sul","25 59m 19.392s S, 49 19m 58.908s W",83850-000
PR,AGUDOS DO SUL,POSTO DE SAUDE TAQUARA LISA,PRINCIPAL,S/N,TAQUARA LISA,"PRINCIPAL, TAQUARA LISA, AGUDOS DO SUL, PR, BRASIL",-25.9887,-49.33305,Agudos do Sul,"25 59m 19.32s S, 49 19m 58.98s W",
PR,AGUDOS DO SUL,POSTO DE SAUDE TARUMA,RUA PRINCIPA L,S/N,TARUMA,"RUA PRINCIPA L, TARUMA, AGUDOS DO SUL, PR, BRASIL",-25.98942,-49.3325,"Rua Alcides de Lima Maoski, 83850-000, Agudos do Sul","25 59m 21.912s S, 49 19m 57s W",83850-000
PR,AGUDOS DO SUL,UNIDADE DA SAUDE DA FAMILIA DORVALINO FERREIRA DE MELO,ESTRADA PRINCIPAL,S/N,PAVAOZINHO,"ESTRADA PRINCIPAL, PAVAOZINHO, AGUDOS DO SUL, PR, BRASIL",-26.02061,-50.59956,"Estrada Principal, São Mateus do Sul","26 1m 14.196s S, 50 35m 58.416s W",
PR,AGUDOS DO SUL,POSTO DE SAUDE LAGOA DOS SOUZA,RODOVIA,S/N,LAGOA DOS SOUZA,"RODOVIA, LAGOA DOS SOUZA, AGUDOS DO SUL, PR, BRASIL",-25.9867,-49.33564,"Rua Evangelizador José Ambrózio de Souza, 83850-000, Agudos do Sul","25 59m 12.12s S, 49 20m 8.304s W",83850-000
PR,ALMIRANTE TAMANDARE,CENTRO DE ESPECIALIDADES ALMIRANTE TAMANDARE,LOURENCO ANGELO BUZATO,592,SANTA TEREZINHA,"LOURENCO ANGELO BUZATO, SANTA TEREZINHA, ALMIRANTE TAMANDARE, PR, BRASIL",-25.31226,-49.30043,"Rua Lourenço Ângelo Buzato, 83501-080, Almirante Tamandaré","25 18m 44.136s S, 49 18m 1.548s W",83501-080
PR,ALMIRANTE TAMANDARE,US JARDIM PARAISO,MIGUEL MURASKI,310,JARDIM PARAISO,"MIGUEL MURASKI, JARDIM PARAISO, ALMIRANTE TAMANDARE, PR, BRASIL",-25.312175600000003,-49.3084691,"Rua Maciel Muraski, Jardim Paraíso, Almirante Tamandaré, Região Geográfica Imediata de Curitiba, Região Metropolitana de Curitiba, Região Geográfica Intermediária de Curitiba, Paraná, Região Sul, 83502-010, Brasil","25 18m 43.8322s S, 49 18m 30.4888s W",83502-010
PR,ALMIRANTE TAMANDARE,U S TRANQUEIRA,ANTONIO STOCHEIRO,46,TRANQUEIRA,"ANTONIO STOCHEIRO, TRANQUEIRA, ALMIRANTE TAMANDARE, PR, BRASIL",-25.24702,-49.32047,"Rua Antônio Stochero, 83514-070, Almirante Tamandaré","25 14m 49.272s S, 49 19m 13.692s W",83514-070
PR,ALMIRANTE TAMANDARE,U S CACHOEIRA,ANTONIO RODRIGUES DIAS,153,CACHOEIRA,"ANTONIO RODRIGUES DIAS, CACHOEIRA, ALMIRANTE TAMANDARE, PR, BRASIL",-25.34357,-49.276,"Rua Professor Antônio Rodrigues Dias, 83506, Almirante Tamandaré","25 20m 36.852s S, 49 16m 33.6s W",83506
PR,ALMIRANTE TAMANDARE,U S CAPIVARA DOS MANFRON,RUA TIJUCO PRETO,S/N,CAPIVARA DOS MANFRON,"RUA TIJUCO PRETO, CAPIVARA DOS MANFRON, ALMIRANTE TAMANDARE, PR, BRASIL",-25.26345,-49.33641,"Estrada Capivara dos Manfrons, 83514, Almirante Tamandaré","25 15m 48.42s S, 49 20m 11.076s W",83514
PR,ALMIRANTE TAMANDARE,U S TAMBOARA,RUA PONTAL DO SUL,9,JARDIM GRAZIELE,"RUA PONTAL DO SUL, JARDIM GRAZIELE, ALMIRANTE TAMANDARE, PR, BRASIL",-25.34704,-49.25285,"Rua Pontal do Sul, 83505-020, Almirante Tamandaré","25 20m 49.344s S, 49 15m 10.26s W",83505-020
PR,ALMIRANTE TAMANDARE,U S JARDIM ROMA,RUA ARAUCARIA,10,JARDIM ROMA,"RUA ARAUCARIA, JARDIM ROMA, ALMIRANTE TAMANDARE, PR, BRASIL",-25.32684,-49.27026,"Rua Araucária, 83504-070, Almirante Tamandaré","25 19m 36.624s S, 49 16m 12.936s W",83504-070
PR,ALMIRANTE TAMANDARE,CTA SAE ALMIRANTE TAMANDARE,ANTONIO RODRIGUES DIAS,153,CACHOEIRA,"ANTONIO RODRIGUES DIAS, CACHOEIRA, ALMIRANTE TAMANDARE, PR, BRASIL",-25.34357,-49.276,"Rua Professor Antônio Rodrigues Dias, 83506, Almirante Tamandaré","25 20m 36.852s S, 49 16m 33.6s W",83506
PR,ALMIRANTE TAMANDARE,U S SEDE,JOSE CARLOS COLODEL,176,VILA SANTA TEREZINHA,"JOSE CARLOS COLODEL, VILA SANTA TEREZINHA, ALMIRANTE TAMANDARE, PR, BRASIL",-25.31199,-49.29705,"Rua José Carlos Colodel, 83501-140, Almirante Tamandaré","25 18m 43.164s S, 49 17m 49.38s W",83501-140
PR,ALMIRANTE TAMANDARE,US SAO VENANCIO,R GERALDO CORDEIRO SANTANA,131,SAO VENANCIO,"R GERALDO CORDEIRO SANTANA, SAO VENANCIO, ALMIRANTE TAMANDARE, PR, BRASIL",-25.33834,-49.2646,"Rua Geraldo Cordeiro Santana, 83504-530, Almirante Tamandaré","25 20m 18.024s S, 49 15m 52.56s W",83504-530
PR,ALMIRANTE TAMANDARE,U S LAMENHA,RUA WADISLAU BUGALSKI,120,LAMENHA,"RUA WADISLAU BUGALSKI, LAMENHA, ALMIRANTE TAMANDARE, PR, BRASIL",-25.34415,-49.29926,"Rua Vereador Wadislau Bugalski, 83507, 83511, 83512, 83514, Almirante Tamandaré","25 20m 38.94s S, 49 17m 57.336s W",83507
PR,ALMIRANTE TAMANDARE,U S TANGUA,RUA JOSE KLEINA,51,TANGUA,"RUA JOSE KLEINA, TANGUA, ALMIRANTE TAMANDARE, PR, BRASIL",-25.36783,-49.31716,"Rua José Kleina, 83508-530, Almirante Tamandaré","25 22m 4.188s S, 49 19m 1.776s W",83508-530
PR,ALMIRANTE TAMANDARE,U S ROSANA,RUA JOSE REAL PRADO,S/N,JARDIM ROSANA,"RUA JOSE REAL PRADO, JARDIM ROSANA, ALMIRANTE TAMANDARE, PR, BRASIL",-25.31274,-49.27408,"Rua José Real Prado, 83501, 83502, Almirante Tamandaré","25 18m 45.864s S, 49 16m 26.688s W",83501
PR,ALMIRANTE TAMANDARE,U S SAO JOAO BATISTA,RUA BRASILIO BENATO,149,SAO JOAO BATISTA,"RUA BRASILIO BENATO, SAO JOAO BATISTA, ALMIRANTE TAMANDARE, PR, BRASIL",-25.2385,-49.29947,"Rua Brasílio Benato, 83514-610, Almirante Tamandaré","25 14m 18.6s S, 49 17m 58.092s W",83514-610
PR,ALTAMIRA DO PARANA,UNIDADE DE ATENCAO PRIMARIA SAUDE DA FAMILIA,RUA PIQUIRI,S/N,CENTRO,"RUA PIQUIRI, CENTRO, ALTAMIRA DO PARANA, PR, BRASIL",-24.79919,-52.71714,"Rua Piquiri, 85280-000, Altamira do Paraná","24 47m 57.084s S, 52 43m 1.704s W",85280-000
PR,ALTONIA,CENTRO DE SAUDE,AVENIDA 7 DE SETEMBRO,1200,JARDIM PANORAMA,"AVENIDA 7 DE SETEMBRO, JARDIM PANORAMA, ALTONIA, PR, BRASIL",-23.8689,-53.90768,"Avenida Sete de Setembro, 7, 87550-000, Altônia","23 52m 8.04s S, 53 54m 27.648s W",87550-000
PR,ALTONIA,POSTO DE SAUDE CAMPO BELO,RUA FIDELISSIO BRAULIO DE MENEZES,125,CENTRO,"RUA FIDELISSIO BRAULIO DE MENEZES, CENTRO, ALTONIA, PR, BRASIL",-22.9327,-52.15156,"Rua Emílio de Menezes, 87660-000, Paranacity","22 55m 57.72s S, 52 9m 5.616s W",87660-000
PR,ALTONIA,POSTO DE SAUDE OURO VERDE,BAIRRO OURO VERDE,100,CENTRO,"BAIRRO OURO VERDE, CENTRO, ALTONIA, PR, BRASIL",-24.7751,-53.90347,Ouro Verde do Oeste,"24 46m 30.36s S, 53 54m 12.492s W",
PR,ALTONIA,POSTO DE SAUDE VILA YARA,VILA YARA,S/N,CENTRO,"VILA YARA, CENTRO, ALTONIA, PR, BRASIL",-21.79721,-48.17271,"Avenida Maria Antônia Camargo de Oliveira & Praça José Furlan, 14801, Araraquara","21 47m 49.956s S, 48 10m 21.756s W",14801
PR,ALTONIA,POSTO DE SAUDE DA PAINEIRA,ESTRADA PAINEIRA,S/N,RURAL,"ESTRADA PAINEIRA, RURAL, ALTONIA, PR, BRASIL",-23.77715,-53.31825,"Rua Paineira, Umuarama","23 46m 37.74s S, 53 19m 5.7s W",
PR,ALTONIA,POSTO DE SAUDE SAO JOAO,SAO JUDAS TADEU,90,CENTRO,"SAO JUDAS TADEU, CENTRO, ALTONIA, PR, BRASIL",-23.83859,-53.80482,"Rua São Judas Tadeu, 87553-000, Altônia","23 50m 18.924s S, 53 48m 17.352s W",87553-000
PR,ALTONIA,POSTO DE SAUDE PANORAMA,RUA OURO PRETO,S/N,JARDIM PANORAMA,"RUA OURO PRETO, JARDIM PANORAMA, ALTONIA, PR, BRASIL",-23.8729905,-53.903471200000006,"Rua Ouro Preto, Jardim Panorama, Altônia, Região Geográfica Imediata de Umuarama, Região Metropolitana de Umuarama, Região Geográfica Intermediária de Maringá, Paraná, Região Sul, Brasil","23 52m 22.7658s S, 53 54m 12.4963s W",
PR,ALTONIA,POSTO DE SAUDE JARDIM PAREDAO,RUA CURITIBA,85,JARDIM PAREDAO,"RUA CURITIBA, JARDIM PAREDAO, ALTONIA, PR, BRASIL",-23.95151,-53.94798,"Avenida Curitiba, 87550, 87552, Altônia","23 57m 5.436s S, 53 56m 52.728s W",87550
PR,ALTONIA,POSTO DE SAUDE JARDIM SOCIAL,RUA MARECHAL DEODORO DA FONSECA,1646,JARDIM SOCIAL,"RUA MARECHAL DEODORO DA FONSECA, JARDIM SOCIAL, ALTONIA, PR, BRASIL",-23.87029,-53.89599,"Rua Marechal Deodoro da Fonseca, 87550-000, Altônia","23 52m 13.044s S, 53 53m 45.564s W",87550-000
PR,ALTONIA,POSTO DE SAUDE JARDIM PLANALTO,LUIZ SALA SOBRINHO,37,JARDIM PLANALTO,"LUIZ SALA SOBRINHO, JARDIM PLANALTO, ALTONIA, PR, BRASIL",-23.9522,-53.94833,"Jardim Paredão, Altônia","23 57m 7.92s S, 53 56m 53.988s W",
PR,ALTO PARAISO,POSTO DE SAUDE PORTO FIGUEIRA,AV MATO GROSSO,S/N,CENTRO,"AV MATO GROSSO, CENTRO, ALTO PARAISO, PR, BRASIL",-23.40488,-53.80927,"Avenida Mato Grosso, 87528-000, Alto Paraíso","23 24m 17.568s S, 53 48m 33.372s W",87528-000
PR,ALTO PARAISO,CENTRO DE SAUDE DE ALTO PARAISO,RUA AUGUSTO JOSE DE SOUZA,1077,CENTRO,"RUA AUGUSTO JOSE DE SOUZA, CENTRO, ALTO PARAISO, PR, BRASIL",-23.50982,-53.73054,"Avenida Augusto José de Souza, Alto Paraíso","23 30m 35.352s S, 53 43m 49.944s W",
PR,ALTO PARAISO,UNIDADE DE ATENCAO PRIMARIA SAUDE DA FAMILIA,AV AUGUSTO JOSE DE SOUZA,S/N,CENTRO,"AV AUGUSTO JOSE DE SOUZA, CENTRO, ALTO PARAISO, PR, BRASIL",-23.50982,-53.73054,"Avenida Augusto José de Souza, Alto Paraíso","23 30m 35.352s S, 53 43m 49.944s W",
PR,ALTO PARANA,NIS II SANTA MARIA,RUA 16 DE AGOSTO,425,SANTA MARIA,"RUA 16 DE AGOSTO, SANTA MARIA, ALTO PARANA, PR, BRASIL",-24.46052,-53.95729,"Rua Vinte e Três de Agosto, 16, 85930-000, Nova Santa Rosa","24 27m 37.872s S, 53 57m 26.244s W",85930-000
PR,ALTO PARANA,NIS II MARISTELA,RUA PINA,277,MARISTELA,"RUA PINA, MARISTELA, ALTO PARANA, PR, BRASIL",-23.1288426,-52.2940059,"Rua Pina, Maristela, Alto Paraná, Região Geográfica Imediata de Paranavaí, Região Geográfica Intermediária de Maringá, Paraná, Região Sul, Brasil","23 7m 43.8334s S, 52 17m 38.4212s W",
PR,ALTO PARANA,NIS II GRALHA AZUL,RUA 07 QUEDAS,1853,CJ GRALHA AZUL,"RUA 07 QUEDAS, CJ GRALHA AZUL, ALTO PARANA, PR, BRASIL",-25.4192,-53.17903,"Rua Gralha Azul, 85485-000, Três Barras do Paraná","25 25m 9.12s S, 53 10m 44.508s W",85485-000
PR,ALTO PARANA,NIS II ALTO PARANA,RUA SOARES RAPOSO,1157,CENTRO,"RUA SOARES RAPOSO, CENTRO, ALTO PARANA, PR, BRASIL",-23.12986,-52.31876,"Rua Soares Raposo, 87750-000, Alto Paraná","23 7m 47.496s S, 52 19m 7.536s W",87750-000
PR,ALTO PARANA,NIS II CENTRAL DE ALTO PARANA,RUA JOSE DE ANCHIETA,1505,CENTRO,"RUA JOSE DE ANCHIETA, CENTRO, ALTO PARANA, PR, BRASIL",-23.13123,-52.31928,"Rua José de Anchieta, 87750-000, Alto Paraná","23 7m 52.428s S, 52 19m 9.408s W",87750-000
PR,ALTO PIQUIRI,POSTO DE SAUDE SALTINHO DO OESTE,PRACA DOM BOSCO,S/N,SALTINHO DO OESTE,"PRACA DOM BOSCO, SALTINHO DO OESTE, ALTO PIQUIRI, PR, BRASIL",-23.9386038,-53.416899,"Praça Dom Bosco, Saltinho do Oeste, Alto Piquiri, Região Geográfica Imediata de Umuarama, Região Metropolitana de Umuarama, Região Geográfica Intermediária de Maringá, Paraná, Região Sul, 87585-000, Brasil","23 56m 18.9737s S, 53 25m 0.8364s W",87585-000
PR,ALTO PIQUIRI,POSTO DE SAUDE PAULISTANIA,AV PAULISTA,S/N,PAULISTANIA,"AV PAULISTA, PAULISTANIA, ALTO PIQUIRI, PR, BRASIL",-24.1568978,-53.3733548,"Avenida Paulista, Paulistânia, Alto Piquiri, Região Geográfica Imediata de Umuarama, Região Metropolitana de Umuarama, Região Geográfica Intermediária de Maringá, Paraná, Região Sul, 87588-000, Brasil","24 9m 24.8321s S, 53 22m 24.0773s W",87588-000
PR,ALTO PIQUIRI,CENTRO DE SAUDE WALTER LAMONICA DOS SANTOS,RUA GETULIO VARGAS,1162,CENTRO,"RUA GETULIO VARGAS, CENTRO, ALTO PIQUIRI, PR, BRASIL",-24.02414,-53.4436,"Rua Getúlio Vargas, 87580-000, Alto Piquiri","24 1m 26.904s S, 53 26m 36.96s W",87580-000
PR,ALTO PIQUIRI,POSTO DE SAUDE MIRANTE DO PIQUIRI,RUA NOSSA SENHORA APARECIDA,S/N,MIRANTE DO PIQUIRI,"RUA NOSSA SENHORA APARECIDA, MIRANTE DO PIQUIRI, ALTO PIQUIRI, PR, BRASIL",-24.2015864,-53.39298,"Rua Nossa Senhora Aparecida, Mirante do Piquiri, Alto Piquiri, Região Geográfica Imediata de Umuarama, Região Metropolitana de Umuarama, Região Geográfica Intermediária de Maringá, Paraná, Região Sul, 87590-000, Brasil","24 12m 5.71104s S, 53 23m 34.728s W",87590-000
PR,ALTO PIQUIRI,UNIDADE DE ATENCAO PRIMARIA DA SAUDE DA FAMILIA,RUA RIBEIRAO PRETO,2440,CENTRO,"RUA RIBEIRAO PRETO, CENTRO, ALTO PIQUIRI, PR, BRASIL",-24.03116,-53.44551,"Rua Ribeirão Preto, 87580-000, Alto Piquiri","24 1m 52.176s S, 53 26m 43.836s W",87580-000
PR,ALVORADA DO SUL,POSTO DE SAUDE CENTRAL DE ALVORADA DO SUL,RUA ROSA IMPERATORE ALVES,1098,CENTRO,"RUA ROSA IMPERATORE ALVES, CENTRO, ALVORADA DO SUL, PR, BRASIL",-22.78229,-51.2279,"Rua Rosa Imperatore Alves, 86150-000, Alvorada do Sul","22 46m 56.244s S, 51 13m 40.44s W",86150-000
PR,ALVORADA DO SUL,UAPSF UNIDADE DE ATENCAO PRIMARIA SAUDE DA FAMILIA,PRACA ANTONIO DE SOUZA LEMOS,32,CENTRO,"PRACA ANTONIO DE SOUZA LEMOS, CENTRO, ALVORADA DO SUL, PR, BRASIL",-29.23195,-51.15603,"Praça Antônio de Lazzer, Caxias do Sul","29 13m 55.02s S, 51 9m 21.708s W",
PR,ALVORADA DO SUL,POSTO DE SAUDE DA ESPERANCA DO NORTE,RUA EMILIO SOLCIA,114,ESPERANCA DO NORTE,"RUA EMILIO SOLCIA, ESPERANCA DO NORTE, ALVORADA DO SUL, PR, BRASIL",-22.77762,-51.22608,"Rua Emílio Solcia, 86150-000, Alvorada do Sul","22 46m 39.432s S, 51 13m 33.888s W",86150-000
PR,AMAPORA,NIS II AMAPORA,RUA SAO PAULO,S/N,CENTRO,"RUA SAO PAULO, CENTRO, AMAPORA, PR, BRASIL",-23.0964,-52.78703,"Rua São Paulo, 87850-000, Amaporã","23 5m 47.04s S, 52 47m 13.308s W",87850-000
PR,AMAPORA,UNIDADE DE ATENCAO PRIMARIA SAUDE DA FAMILIA,AVENIDA IVAI,S/N,CENTRO,"AVENIDA IVAI, CENTRO, AMAPORA, PR, BRASIL",-23.1074,-52.78836,"Avenida Ivaí, 87850-000, Amaporã","23 6m 26.64s S, 52 47m 18.096s W",87850-000
PR,AMAPORA,NIS I NORDESTINA,AVN PARANAGUA,S/N,NORDESTINA,"AVN PARANAGUA, NORDESTINA, AMAPORA, PR, BRASIL",-23.0908,-52.77947,"Avenida Norte, 87850-000, Amaporã","23 5m 26.88s S, 52 46m 46.092s W",87850-000
PR,AMPERE,UNIDADE PSF III AMPERE,RUA ROMA,457,NOSSA SENHORA DAS GR,"RUA ROMA, NOSSA SENHORA DAS GR, AMPERE, PR, BRASIL",-25.92544,-53.48068,"Rua Roma, 85640-000, Ampére","25 55m 31.584s S, 53 28m 50.448s W",85640-000
PR,AMPERE,UNIDADE DE PSF V AMPERE,BOA VISTA,126,SANTA MONICA,"BOA VISTA, SANTA MONICA, AMPERE, PR, BRASIL",-25.9185,-53.46737,"Rua Boa Vista, 85640-000, Ampére","25 55m 6.6s S, 53 28m 2.532s W",85640-000
PR,AMPERE,POSTO DE SAUDE SAO SALVADOR AMPERE,RUA PRINCIPAL,S/N,LINHA SAO SALVADOR,"RUA PRINCIPAL, LINHA SAO SALVADOR, AMPERE, PR, BRASIL",-24.01337,-46.42304,"Rua São Salvador, 11701-830, Praia Grande","24 0m 48.132s S, 46 25m 22.944s W",11701-830
PR,AMPERE,CENTRO DE SAUDE NIS I AMPERE,RUA ARTHUR KRINDGES,572,CENTRO,"RUA ARTHUR KRINDGES, CENTRO, AMPERE, PR, BRASIL",-25.51253,-54.55844,"Rua Arthur Bernardes, 85863-130, Foz do Iguaçu","25 30m 45.108s S, 54 33m 30.384s W",85863-130
PR,AMPERE,PSF NOSSA SENHORA APARECIDA,RUA ROMEU NICOLETTI,S/N,COLINA VERRDE,"RUA ROMEU NICOLETTI, COLINA VERRDE, AMPERE, PR, BRASIL",-25.93024,-53.49023,"Rua Romeu Nicoletti, 85640-000, Ampére","25 55m 48.864s S, 53 29m 24.828s W",85640-000
PR,AMPERE,PSF ANGELINA FORTE SCARIOT,RUA CARAMURU,1125,SAO FRANCISCO,"RUA CARAMURU, SAO FRANCISCO, AMPERE, PR, BRASIL",-25.92519,-53.46789,"Rua Caramuru, 85640-000, Ampére","25 55m 30.684s S, 53 28m 4.404s W",85640-000
PR,ANAHY,UNIDADE DE ATENCAO PRIMARIA DE SF DE ANAHY UAPSF,AVENIDA BRASIL,456,CENTRO,"AVENIDA BRASIL, CENTRO, ANAHY, PR, BRASIL",-20.4776358,-54.6545734,"Avenida Prefeito Lúdio Martins Coelho, Vila dos Marimbas, Caiçara, Campo Grande, Região Geográfica Imediata de Campo Grande, Região Geográfica Intermediária de Campo Grande, Mato Grosso do Sul, Região Centro-Oeste, 79090-160, Brasil","20 28m 39.4889s S, 54 39m 16.4642s W",79090-160
PR,ANAHY,C S DE ANAHY,RUA GENERAL OSORIO,S/N,CENTRO,"RUA GENERAL OSORIO, CENTRO, ANAHY, PR, BRASIL",-24.64696,-53.13701,"Rua General Osório, 85425-000, Anahy","24 38m 49.056s S, 53 8m 13.236s W",85425-000
PR,ANDIRA,UNIDADE BASICA DE SAUDE BAIRRO TIMBURI,R AURELIO CAMBI GILDO JOAO ZAFANELLI,805,TIMBURI II,"R AURELIO CAMBI GILDO JOAO ZAFANELLI, TIMBURI II, ANDIRA, PR, BRASIL",-23.04783,-50.24295,"Rua João Gildo Zafanelli & Rua Aurélio Cambi, 86380, Andirá","23 2m 52.188s S, 50 14m 34.62s W",86380
PR,ANDIRA,UNIDADE BASICA DE SAUDE DISTRITO NOSSA SENHORA APARECIDA,RUA DANIEL MOLINA,330,DIST N S APARECID,"RUA DANIEL MOLINA, DIST N S APARECID, ANDIRA, PR, BRASIL",-22.96481,-50.26816,"Rua Daniel Molina, 86383-000, Andirá","22 57m 53.316s S, 50 16m 5.376s W",86383-000
PR,ANDIRA,UNIDADE BASICA DE SAUDE VILA AMERICANA,RUA GUAIPURUS,1055,VILA AMERICANA,"RUA GUAIPURUS, VILA AMERICANA, ANDIRA, PR, BRASIL",-22.751,-47.32253,"Rua Guaiçurus, 13466-100, Americana","22 45m 3.6s S, 47 19m 21.108s W",13466-100
PR,ANDIRA,UNIDADE BASICA DE SAUDE VILA SANTA INES,RUA SAO PAULO,1428,VILA SANTA INES,"RUA SAO PAULO, VILA SANTA INES, ANDIRA, PR, BRASIL",-22.72881,-47.30102,"Rua Santa Inês, 13473-060, Americana","22 43m 43.716s S, 47 18m 3.672s W",13473-060
PR,ANDIRA,UNIDADE BASICA DE SAUDE SANTA HELENA,AVENIDA AILSON RAMOS DOS SANTOS,S/N,JARDIM SANTA HELENA,"AVENIDA AILSON RAMOS DOS SANTOS, JARDIM SANTA HELENA, ANDIRA, PR, BRASIL",-23.44873,-47.48396,"Rua Gregório Ramos dos Santos, 18078-000, Sorocaba","23 26m 55.428s S, 47 29m 2.256s W",18078-000
PR,ANDIRA,CENTRO DE SAUDE DR ANGELO PAPA,AVENIDA CESARIO CASTILHO,1533,CENTRO,"AVENIDA CESARIO CASTILHO, CENTRO, ANDIRA, PR, BRASIL",-23.055544,-50.2231112888855,"Congregação Cristã Do Brasil, Avenida Cesário Castilho, Andirá, Região Geográfica Imediata de Santo Antônio da Platina, Região Geográfica Intermediária de Londrina, Paraná, Região Sul, 86380-000, Brasil","23 3m 19.9584s S, 50 13m 23.2006s W",86380-000
PR,ANDIRA,UNIDADE BASICA DE SAUDE VILA INDUSTRIAL,RUA RUI BARBOSA,90,VILA INDUSTRIAL,"RUA RUI BARBOSA, VILA INDUSTRIAL, ANDIRA, PR, BRASIL",-23.04843,-50.21954,"Rua Rui Barbosa, 86380-000, Andirá","23 2m 54.348s S, 50 13m 10.344s W",86380-000
PR,ANGULO,DEPARTAMENTO MUNICIPAL DE SAUDE,RUA DELMIRO COSTA DE OLIVEIRA,45,CENTRO,"RUA DELMIRO COSTA DE OLIVEIRA, CENTRO, ANGULO, PR, BRASIL",-23.19738,-51.90943,"Rua Delmiro Costa de Oliveira, 86755-000, Ângulo","23 11m 50.568s S, 51 54m 33.948s W",86755-000
PR,ANGULO,NUCLEO INTEGRADO DE SAUDE I ANGULO,RUA DELMIRO COSTA OLIVEIRA,43,CENTRO,"RUA DELMIRO COSTA OLIVEIRA, CENTRO, ANGULO, PR, BRASIL",-23.19738,-51.90943,"Rua Delmiro Costa de Oliveira, 86755-000, Ângulo","23 11m 50.568s S, 51 54m 33.948s W",86755-000
PR,ANTONINA,UNIDADE BASICA DE SAUDE DO CEDRO MIRTHES ROTOLLI MACEDO,SITIO DO CEDRO,S/N,SITIO DO CEDRO,"SITIO DO CEDRO, SITIO DO CEDRO, ANTONINA, PR, BRASIL",-3.75255,-38.50028,"Rua Sítio Cedro, 60170-130, Fortaleza","3 45m 9.18s S, 38 30m 1.008s W",60170-130
PR,ANTONINA,UNIDADE BASICA DE SAUDE DA PONTA DA PITA CLAILTON JOSE GON,RUA ENGENHEIRO LUIZ AUGUSTO L FONSECA,S/N,PONTA DA PITA,"RUA ENGENHEIRO LUIZ AUGUSTO L FONSECA, PONTA DA PITA, ANTONINA, PR, BRASIL",-25.45403,-48.68831,"Rua Engenheiro Luiz Augusto de Leão Fonseca, 83370-000, Antonina","25 27m 14.508s S, 48 41m 17.916s W",83370-000
PR,ANTONINA,UNIDADE BASICA DE SAUDE DO BARIGUI PADRE AFONSO SULLIVAN,RUA DURVALINA ARMSTRONG DOS SANTOS,S/N,BARIGUI,"RUA DURVALINA ARMSTRONG DOS SANTOS, BARIGUI, ANTONINA, PR, BRASIL",-25.11765,-50.13367,"Rua Antonina Wrodlewski dos Santos, 84026-550, Ponta Grossa","25 7m 3.54s S, 50 8m 1.212s W",84026-550
PR,ANTONINA,UNIDADE BASICA DE SAUDE DO BAIRRO ALTO,RUA PRINCIPAL,S/N,BAIRRO ALTO,"RUA PRINCIPAL, BAIRRO ALTO, ANTONINA, PR, BRASIL",-21.02484,-43.41413,"Praça Maurino Dias do Nascimento & Rua Principal, 36260, Alto Rio Doce","21 1m 29.424s S, 43 24m 50.868s W",36260
PR,ANTONINA,UNIDADE BASICA DE SAUDE DO CACHOEIR NICE ALCANTARA MACHADO,SITIO CACHOEIRA,S/N,CACHOEIRA,"SITIO CACHOEIRA, CACHOEIRA, ANTONINA, PR, BRASIL",-25.22888,-48.75156,"Cachoeira de Cima, Antonina","25 13m 43.968s S, 48 45m 5.616s W",
PR,ANTONINA,UNIDADE BASICA DE SAUDE DO RIO DO NUNES NISA BARTH DE CAMP,SITIO DO RIO DO NUNES,S/N,RIO DO NUNES,"SITIO DO RIO DO NUNES, RIO DO NUNES, ANTONINA, PR, BRASIL",-22.79047,-42.53834,"Rua Oswaldo José Nunes, 28810-000, Rio Bonito","22 47m 25.692s S, 42 32m 18.024s W",28810-000
PR,ANTONINA,UNIDADE BASICA DE SAUDE CENTRAL DE ANTONINA,RUA CINCO DE JULHO,S/N,CENTRO,"RUA CINCO DE JULHO, CENTRO, ANTONINA, PR, BRASIL",-25.43043,-48.71803,"Rua Cinco de Julho, 83370-000, Antonina","25 25m 49.548s S, 48 43m 4.908s W",83370-000
PR,ANTONIO OLINTO,CENTRO SOCIAL RURAL,RUA ESTANISLAU BOTIKOSKI,S/N,CENTRO,"RUA ESTANISLAU BOTIKOSKI, CENTRO, ANTONIO OLINTO, PR, BRASIL",-25.98443,-50.20084,"Rua Estanislau Boczkovski, 83980-000, Antônio Olinto","25 59m 3.948s S, 50 12m 3.024s W",83980-000
PR,ANTONIO OLINTO,POSTO DE SAUDE DE AGUA AMARELA DE BAIXO,AGUA AMARELA DE BAIXO,S/N,AGUA AMARELA DE BAIX,"AGUA AMARELA DE BAIXO, AGUA AMARELA DE BAIX, ANTONIO OLINTO, PR, BRASIL",-12.22447,-38.99386,"Rua Água Amarela, Feira de Santana","12 13m 28.092s S, 38 59m 37.896s W",
PR,ANTONIO OLINTO,POSTO DE SAUDE DE AGUA AMARELA DE CIMA,AGUA AMARELA DE CIMA,S/N,AGUA AMARELA DE CIMA,"AGUA AMARELA DE CIMA, AGUA AMARELA DE CIMA, ANTONIO OLINTO, PR, BRASIL",-12.22447,-38.99386,"Rua Água Amarela, Feira de Santana","12 13m 28.092s S, 38 59m 37.896s W",
PR,ANTONIO OLINTO,POSTO DE SAUDE DO IMBUIAL,IMBUIAL,S/N,IMBUIAL,"IMBUIAL, IMBUIAL, ANTONIO OLINTO, PR, BRASIL",-25.98678,-50.19669,Antônio Olinto,"25 59m 12.408s S, 50 11m 48.084s W",
PR,ANTONIO OLINTO,POSTO DE SAUDE DO BUTIA,BUTIA,S/N,BUTIA,"BUTIA, BUTIA, ANTONIO OLINTO, PR, BRASIL",-25.98678,-50.19669,Antônio Olinto,"25 59m 12.408s S, 50 11m 48.084s W",
PR,ANTONIO OLINTO,POSTO DE SAUDE DA LAGOA DA CRUZ,LAGOA DA CRUZ,S/N,LAGOA DA CRUZ,"LAGOA DA CRUZ, LAGOA DA CRUZ, ANTONIO OLINTO, PR, BRASIL",-6.12121,-35.48484,"Rua Antônio Rodrigues da Cruz, 59247-000, Lagoa Salgada","6 7m 16.356s S, 35 29m 5.424s W",59247-000
PR,ANTONIO OLINTO,UAPSF UNIDADE DE SAUDE DA FAMILIA ANTONIO OLINTO,RUA ESTANISLAU BOTIKOSKI,S/N,CENTRO,"RUA ESTANISLAU BOTIKOSKI, CENTRO, ANTONIO OLINTO, PR, BRASIL",-25.98443,-50.20084,"Rua Estanislau Boczkovski, 83980-000, Antônio Olinto","25 59m 3.948s S, 50 12m 3.024s W",83980-000
PR,APUCARANA,UBS JOAO MARIOTO,RUA ITALO ADO FONTANINI,525,VILA FORMOSA,"RUA ITALO ADO FONTANINI, VILA FORMOSA, APUCARANA, PR, BRASIL",-23.55906,-51.46009,"Rua Ítalo Ado Fontanini, 86800, 86802, 86809, Apucarana","23 33m 32.616s S, 51 27m 36.324s W",86800
PR,APUCARANA,UBS VALDECIR DE PAULA,RUA NOSSA SENHORA CONCEICAO,S/N,JD DAS FLORES,"RUA NOSSA SENHORA CONCEICAO, JD DAS FLORES, APUCARANA, PR, BRASIL",-2.5008,-43.25318,"Rua das Flores & Praça Nossa Senhora da Conceição, 65195, Santo Amaro do Maranhão","2 30m 2.88s S, 43 15m 11.448s W",65195
PR,APUCARANA,UBS JOAQUIM TRIZOTI,RUA SERRA DO MAR,S/N,NADRIANO CORREA,"RUA SERRA DO MAR, NADRIANO CORREA, APUCARANA, PR, BRASIL",-24.94437,-53.39966,"Rua Serra do Mar, 85817-790, Cascavel","24 56m 39.732s S, 53 23m 58.776s W",85817-790
PR,APUCARANA,UBS ANTONIO CARLOS EISFELD SACHELLI,AVAVIACAO,S/N,JD COLONIAL,"AVAVIACAO, JD COLONIAL, APUCARANA, PR, BRASIL",-23.55281,-51.4254,"Rua Maysa Mon Jardim & Avenida Aviação, 86812, Apucarana","23 33m 10.116s S, 51 25m 31.44s W",86812
PR,APUCARANA,UBS CENTRO SOCIAL URBANO,RUA JOAO MATIUZZI,279,PARQUE BELA VISTA,"RUA JOAO MATIUZZI, PARQUE BELA VISTA, APUCARANA, PR, BRASIL",-23.53333,-51.45712,"Rua João Matiuzzi, 86803-180, Apucarana","23 31m 59.988s S, 51 27m 25.632s W",86803-180
PR,APUCARANA,UBS PHILIPE WECKWERTH,RUA QUINTINO BOCAIUVA,S/N,JARDIM MILANI,"RUA QUINTINO BOCAIUVA, JARDIM MILANI, APUCARANA, PR, BRASIL",-23.56172,-51.44435,"Rua Quintino Bocaiuva, 86811-000, Apucarana","23 33m 42.192s S, 51 26m 39.66s W",86811-000
PR,APUCARANA,UBS DONA MARIA DO CAFE,RUA EMILIANO PERNETA,475,JD PONTA GROSSA,"RUA EMILIANO PERNETA, JD PONTA GROSSA, APUCARANA, PR, BRASIL",-25.09389,-50.14193,"Rua Emiliano Perneta, 84025-410, Ponta Grossa","25 5m 38.004s S, 50 8m 30.948s W",84025-410
PR,APUCARANA,UBS LEOPOLDO HARTWIG JR,RUA MARCILIO DIAS,S/N,VILA NOVA,"RUA MARCILIO DIAS, VILA NOVA, APUCARANA, PR, BRASIL",-20.78445,-51.68718,"Rua Marcílio Dias, 79603, 79604, 79620, 79645, Três Lagoas","20 47m 4.02s S, 51 41m 13.848s W",79603
PR,APUCARANA,UBS CORREA DE FREITAS,AV GETULIO VARGAS,S/N,CORREA DE FREITAS,"AV GETULIO VARGAS, CORREA DE FREITAS, APUCARANA, PR, BRASIL",-23.6125,-51.34712,"Avenida Getúlio Vargas, 86816-000, Apucarana","23 36m 45s S, 51 20m 49.632s W",86816-000
PR,APUCARANA,UBS PEDRO BARRETO,RUA APUCARANA,S/N,VILA REIS,"RUA APUCARANA, VILA REIS, APUCARANA, PR, BRASIL",-23.6109242,-51.4056156,"Rua Apucarana, Vila Reis, Apucarana, Região Geográfica Imediata de Apucarana, Região Geográfica Intermediária de Londrina, Paraná, Região Sul, Brasil","23 36m 39.3271s S, 51 24m 20.2162s W",
PR,APUCARANA,UBS RAUL CASTILHO,RUA RIO CONGOINHAS,S/N,N H PAPA JOAO PAULO,"RUA RIO CONGOINHAS, N H PAPA JOAO PAULO, APUCARANA, PR, BRASIL",-25.01271,-50.85972,"Travessa Papa João Paulo II & Rua Rio Branco, 84460, Ivaí","25 0m 45.756s S, 50 51m 34.992s W",84460
PR,APUCARANA,UBS EUNICE PENHARBEL,RUA ILSON FERREIRA GUERRA,S/N,SUMATRA I,"RUA ILSON FERREIRA GUERRA, SUMATRA I, APUCARANA, PR, BRASIL",-23.57009,-51.47202,"Rua Ilson Aparecido Silva, 86802-427, Apucarana","23 34m 12.324s S, 51 28m 19.272s W",86802-427
PR,APUCARANA,UBS MERCEDES SILVA MORENO,RUA ADALBERTO KRUSH,S/N,VILA REGINA,"RUA ADALBERTO KRUSH, VILA REGINA, APUCARANA, PR, BRASIL",-23.65123,-46.36986,"Rua Patrícia Regina Cardoso, 09435-060, Ribeirão Pires","23 39m 4.428s S, 46 22m 11.496s W",09435-060
PR,APUCARANA,UBS PARIGOT DE SOUZA,RUA NOVA UCRANIA,S/N,PARIGOT SOUZA,"RUA NOVA UCRANIA, PARIGOT SOUZA, APUCARANA, PR, BRASIL",-23.5755,-51.45567,"Rua Nova Ucrânia, Apucarana","23 34m 31.8s S, 51 27m 20.412s W",
PR,APUCARANA,UBS RODRIGO YOSHII TRAMONTIN,RUA SAO CARLOS,756,VILA APUCARANINHA,"RUA SAO CARLOS, VILA APUCARANINHA, APUCARANA, PR, BRASIL",-23.54745,-51.46757,"Rua São Carlos, 86801-540, Apucarana","23 32m 50.82s S, 51 28m 3.252s W",86801-540
PR,APUCARANA,UBS BOLIVAR PAVAO,AV CENTRAL DO PARANA,S/N,JD AMERICA,"AV CENTRAL DO PARANA, JD AMERICA, APUCARANA, PR, BRASIL",-23.54303,-51.44793,"Avenida Central do Paraná, 86804, 86807, Apucarana","23 32m 34.908s S, 51 26m 52.548s W",86804
PR,APUCARANA,UBS JULIA RENCZKOWSKI,RUA EQUADOR,510,CHARLES CHAPLIN,"RUA EQUADOR, CHARLES CHAPLIN, APUCARANA, PR, BRASIL",-23.53852,-51.43149,"Rua Equador, 86805-310, Apucarana","23 32m 18.672s S, 51 25m 53.364s W",86805-310
PR,APUCARANA,UBS ANA MARIA PEPATO,RUA JOSE MANOEL DE OLIVEIRA,S/N,JD TRABALHISTA,"RUA JOSE MANOEL DE OLIVEIRA, JD TRABALHISTA, APUCARANA, PR, BRASIL",-23.55076,-51.44056,"Rua José Manoel de Oliveira, 86807-170, Apucarana","23 33m 2.736s S, 51 26m 26.016s W",86807-170
PR,APUCARANA,UBS EROS PACHECO,RUA GUAPURUVU,S/N,AFONSO CAMARGO,"RUA GUAPURUVU, AFONSO CAMARGO, APUCARANA, PR, BRASIL",-23.57458,-51.4581,"Rua Afonso Alves de Camargo, 86802-560, Apucarana","23 34m 28.488s S, 51 27m 29.16s W",86802-560
PR,APUCARANA,UBS WALTER LAZARINI,RUA AUGUSTO FERREIRA CHAGAS,S/N,PIRAPO,"RUA AUGUSTO FERREIRA CHAGAS, PIRAPO, APUCARANA, PR, BRASIL",-23.559,-51.54001,"Rua Augusto Ferreira Chagas, 86818-000, Apucarana","23 33m 32.4s S, 51 32m 24.036s W",86818-000
PR,APUCARANA,UBS OSVALDO DAMIN,AVENIDA IGUACU,348,CENTRO,"AVENIDA IGUACU, CENTRO, APUCARANA, PR, BRASIL",-23.5563018,-51.47089287530468,"Igreja Missionária Unida do Brasil, 375, Avenida Iguaçu, Apucarana, Região Geográfica Imediata de Apucarana, Região Geográfica Intermediária de Londrina, Paraná, Região Sul, 86800-320, Brasil","23 33m 22.6865s S, 51 28m 15.2144s W",86800-320
PR,APUCARANA,UBS DR TAKAITI MIYADI,RUA SAO LEOPOLDO,243,CENTRO,"RUA SAO LEOPOLDO, CENTRO, APUCARANA, PR, BRASIL",-23.52697,-51.43516,"Rua São Leopoldo, 86806-170, Apucarana","23 31m 37.092s S, 51 26m 6.576s W",86806-170
PR,APUCARANA,UBS DR FOUAD SALOMAO,RUA JAMIL SONI,S/N,CENTRO,"RUA JAMIL SONI, CENTRO, APUCARANA, PR, BRASIL",-23.54788,-51.46092,"Rua Jamil Soni, 86800-660, Apucarana","23 32m 52.368s S, 51 27m 39.312s W",86800-660
PR,APUCARANA,UNIDADE DE ATENCAO PRIMARIA SAUDE DA FAMILIA DR ROMEU MILANI,RUA OSWALDO CRUZ,400,CENTRO,"RUA OSWALDO CRUZ, CENTRO, APUCARANA, PR, BRASIL",-23.54757,-51.46441,"Rua Oswaldo Cruz, 86800, Apucarana","23 32m 51.252s S, 51 27m 51.876s W",86800
PR,APUCARANA,UBS ORESTES GONCALVES MARQUITO,RUA JAIR FIDELIS MARQUES,S/N,JD GARCIA,"RUA JAIR FIDELIS MARQUES, JD GARCIA, APUCARANA, PR, BRASIL",-23.54417,-51.43022,"Rua Jair Fidelis Marques, 86807-560, Apucarana","23 32m 39.012s S, 51 25m 48.792s W",86807-560
PR,APUCARANA,ESCOLA DA GESTANTE,RUA OSVALDO CRUZ,S/N,CENTRO,"RUA OSVALDO CRUZ, CENTRO, APUCARANA, PR, BRASIL",-24.95387,-53.46799,"Rua Osvaldo Cruz, 85801, 85810, 85811, Cascavel","24 57m 13.932s S, 53 28m 4.764s W",85801
PR,APUCARANA,UBS ELAINE MAZUR MARTINS LOPES CAMARGO,RUA ANDRE KORILO,1190,RESIDENCIAL INTERLAG,"RUA ANDRE KORILO, RESIDENCIAL INTERLAG, APUCARANA, PR, BRASIL",-23.57581,-51.48597,"Rua André Korilo, 86802-783, Apucarana","23 34m 32.916s S, 51 29m 9.492s W",86802-783
PR,APUCARANA,UBS CENTRO INFANTIL,RUA MIGUEL SIMIAO,31,CENTRO,"RUA MIGUEL SIMIAO, CENTRO, APUCARANA, PR, BRASIL",-23.55368,-51.46366,"Rua Miguel Simião, 86800-260, Apucarana","23 33m 13.248s S, 51 27m 49.176s W",86800-260
PR,APUCARANA,UBS RUTH EUGENIO DA SILVA,RUA MEXICO,S/N,VALE VERDE,"RUA MEXICO, VALE VERDE, APUCARANA, PR, BRASIL",-23.54314,-51.43502,"Rua México & Rua Ouro Verde, 86805, Apucarana","23 32m 35.304s S, 51 26m 6.072s W",86805
PR,APUCARANA,NUCLEO ACONSELHAMENTO TESTAGEM TRATAPUCARANA,RUA DR DES CLOTARIO PORTUGAL,1116,CENTRO,"RUA DR DES CLOTARIO PORTUGAL, CENTRO, APUCARANA, PR, BRASIL",-23.54914,-51.47059,"Rua Des Clotário Portugal, Apucarana","23 32m 56.904s S, 51 28m 14.124s W",
PR,APUCARANA,UBS CAIXA DE SAO PEDRO,RUA NELSON MIQUELAO,S/N,CAIXA SAO PEDRO,"RUA NELSON MIQUELAO, CAIXA SAO PEDRO, APUCARANA, PR, BRASIL",-23.48047,-51.58681,"Rua Nelson Miquelão, 86817-000, Apucarana","23 28m 49.692s S, 51 35m 12.516s W",86817-000
PR,APUCARANA,UBS ACLIMACAO,RUA ARTHUR MILHER,S/N,ACLIMACAO,"RUA ARTHUR MILHER, ACLIMACAO, APUCARANA, PR, BRASIL",-23.55899,-51.44977,"Rua Arthur Miller Thomas, 86808, Apucarana","23 33m 32.364s S, 51 26m 59.172s W",86808
PR,ARAPONGAS,UNIDADE BASICA DE SAUDE SANTO ANTONIO,RUA BATUQUIRA,550,JARDIM SANTO ANTONIO,"RUA BATUQUIRA, JARDIM SANTO ANTONIO, ARAPONGAS, PR, BRASIL",-24.17793,-51.69067,"Rua Santo Antônio, 86860-000, Jardim Alegre","24 10m 40.548s S, 51 41m 26.412s W",86860-000
PR,ARAPONGAS,UNIDADE BASICA DE SAUDE CAMPINHO,RUA TIPIU,93,DISTRITO CAMPINHO,"RUA TIPIU, DISTRITO CAMPINHO, ARAPONGAS, PR, BRASIL",-23.37783,-51.45079,"Rua A, 86702, Arapongas","23 22m 40.188s S, 51 27m 2.844s W",86702
PR,ARAPONGAS,UNIDADE BASICA DE SAUDE BANDEIRANTES,RUA MERGULHADOR,690,JD BANDEIRANTES,"RUA MERGULHADOR, JD BANDEIRANTES, ARAPONGAS, PR, BRASIL",-23.39895,-51.43137,"Rua Mergulhador, 86703, Arapongas","23 23m 56.22s S, 51 25m 52.932s W",86703
PR,ARAPONGAS,UNIDADE BASICA DE SAUDE PRIMAVERA,AVENIDA GATURAMO,1000,JARDIM PRIMAVERA,"AVENIDA GATURAMO, JARDIM PRIMAVERA, ARAPONGAS, PR, BRASIL",-23.39209,-51.44894,"Avenida Gaturamo, 86702, Arapongas","23 23m 31.524s S, 51 26m 56.184s W",86702
PR,ARAPONGAS,UNIDADE BASICA DE SAUDE CAIC,RUA CORDONIX,153,JARDIM LORENA,"RUA CORDONIX, JARDIM LORENA, ARAPONGAS, PR, BRASIL",-24.16433,-51.62666,"Rua Arapongas, 86860-000, Jardim Alegre","24 9m 51.588s S, 51 37m 35.976s W",86860-000
PR,ARAPONGAS,UNIDADE BASICA DE SAUDE JARDIM BARONEZA,RUA TETRAZ,26,JARDIM BARONEZA,"RUA TETRAZ, JARDIM BARONEZA, ARAPONGAS, PR, BRASIL",-23.42012,-51.42428,"Rua Tetraz, 86706-050, Arapongas","23 25m 12.432s S, 51 25m 27.408s W",86706-050
PR,ARAPONGAS,UNIDADE BASICA DE SAUDE GUADALUPE,RUA ATINGAU,S/N,JARDIM AEROPORTO,"RUA ATINGAU, JARDIM AEROPORTO, ARAPONGAS, PR, BRASIL",-23.38994,-51.44196,"Rua Atingau, 86702-180, Arapongas","23 23m 23.784s S, 51 26m 31.056s W",86702-180
PR,ARAPONGAS,UNIDADE BASICA DE SAUDE SAO VICENTE,RUA TICO TICO,510,CENTRO,"RUA TICO TICO, CENTRO, ARAPONGAS, PR, BRASIL",-23.41627,-51.43325,"Rua Tico Tico, 86700, 86707, 86716, Arapongas","23 24m 58.572s S, 51 25m 59.7s W",86700
PR,ARAPONGAS,UNIDADE BASICA DE SAUDE JARDIM PANORAMA,RUA CARRANCHO,183,JARDIM PANORAMA,"RUA CARRANCHO, JARDIM PANORAMA, ARAPONGAS, PR, BRASIL",-24.16433,-51.62666,"Rua Arapongas, 86860-000, Jardim Alegre","24 9m 51.588s S, 51 37m 35.976s W",86860-000
PR,ARAPONGAS,UNIDADE BASICA DE SAUDE CLEMENTE SORAES ARAUCARIA,SAIRA DOURADA,390,RESIDENCIAL ARAUCARI,"SAIRA DOURADA, RESIDENCIAL ARAUCARI, ARAPONGAS, PR, BRASIL",-23.41776,-51.46398,"Rua Saira Dourado, 86710-039, Arapongas","23 25m 3.936s S, 51 27m 50.328s W",86710-039
PR,ARAPONGAS,UNIDADE BASICA DE SAUDE TROPICAL,RUA DANCARINO,S/N,CONJUNTO TROPICAL,"RUA DANCARINO, CONJUNTO TROPICAL, ARAPONGAS, PR, BRASIL",-23.3804231,-51.4583369,"Rua Dançarino, Conjunto Residencial Tropical, Arapongas, Região Geográfica Imediata de Londrina, Região Geográfica Intermediária de Londrina, Paraná, Região Sul, 86702-065, Brasil","23 22m 49.5232s S, 51 27m 30.0128s W",86702-065
PR,ARAPONGAS,UNIDADE BASICA DE SAUDE SAO BENTO,DANCADOR ESTRELA,202,ALTO DA BOA VISTA,"DANCADOR ESTRELA, ALTO DA BOA VISTA, ARAPONGAS, PR, BRASIL",-18.86167,-41.96908,"Praça Alto da Boa Vista, 35053-000, Governador Valadares","18 51m 42.012s S, 41 58m 8.688s W",35053-000
PR,ARAPONGAS,UNIDADE BASICA DE SAUDE PETROPOLIS,RUA PATO MERGULADOR,280,JARDIM PETROPOLIS,"RUA PATO MERGULADOR, JARDIM PETROPOLIS, ARAPONGAS, PR, BRASIL",-23.41292,-51.45862,"Rua Pato Mergulhador, 86709, Arapongas","23 24m 46.512s S, 51 27m 31.032s W",86709
PR,ARAPONGAS,UNIDADE BASICA DE SAUDE COLUMBIA,RUA PATO BRAVO,420,JARDIM COLUMBIA I,"RUA PATO BRAVO, JARDIM COLUMBIA I, ARAPONGAS, PR, BRASIL",-23.4271,-51.43153,"Rua Pato Bravo, 86702, 86707, Arapongas","23 25m 37.56s S, 51 25m 53.508s W",86702
PR,ARAPONGAS,UNIDADE BASICA DE SAUDE LORI,RUA TUCANOS,1810,CENTRO,"RUA TUCANOS, CENTRO, ARAPONGAS, PR, BRASIL",-23.411,-51.44013,"Rua Tucanos, 86700, 86701, Arapongas","23 24m 39.6s S, 51 26m 24.468s W",86700
PR,ARAPONGAS,UNIDADE BASICA DE SAUDE DEL CONDOR,RUA DANCARINO NEGRO,41,CONJ DEL CONDOR,"RUA DANCARINO NEGRO, CONJ DEL CONDOR, ARAPONGAS, PR, BRASIL",-23.39185,-51.4196,"Rua Dançarino Negro, 86703-340, Arapongas","23 23m 30.66s S, 51 25m 10.56s W",86703-340
PR,ARAPONGAS,UNIDADE BASICA DE SAUDE COLONIA ESPERANCA,ZONA RURAL,S/N,COLONIA ESPERANCA,"ZONA RURAL, COLONIA ESPERANCA, ARAPONGAS, PR, BRASIL",-23.46511,-51.42971,"Conjunto Colônia Esperança, 86702, Arapongas","23 27m 54.396s S, 51 25m 46.956s W",86702
PR,ARAPONGAS,UNIDADE BASICA DE SAUDE PADRE CHICO,ARARA CANINDE,150,PADRE CHICO,"ARARA CANINDE, PADRE CHICO, ARAPONGAS, PR, BRASIL",-23.4248,-51.43688,"Rua Arara Canindé, 86707-240, Arapongas","23 25m 29.28s S, 51 26m 12.768s W",86707-240
PR,ARAPONGAS,UNIDADE BASICA DE SAUDE VILA ARAPONGUINHA,RUA IRATAUA,781,VILA ARAPONGUINHA,"RUA IRATAUA, VILA ARAPONGUINHA, ARAPONGAS, PR, BRASIL",-23.39346,-51.42163,"Rua Iratauá, 86702, 86703, 86704, 86705, Arapongas","23 23m 36.456s S, 51 25m 17.868s W",86702
PR,ARAPONGAS,UNIDADE BASICA DE SAUDE CENTAURO,RUA MUTUPORANGA,289,CONJ CENTAURO,"RUA MUTUPORANGA, CONJ CENTAURO, ARAPONGAS, PR, BRASIL",-24.91082,-53.42587,"Rua Arapongas, 85814, Cascavel","24 54m 38.952s S, 53 25m 33.132s W",85814
PR,ARAPONGAS,UNIDADE BASICA DE SAUDE PALMARES,RUA TANATAU,520,JARDIM SAO BENTO,"RUA TANATAU, JARDIM SAO BENTO, ARAPONGAS, PR, BRASIL",-24.08584,-46.6028,"Rua Bento Teixeira, 11709-420, Praia Grande","24 5m 9.024s S, 46 36m 10.08s W",11709-420
PR,ARAPONGAS,UNIDADE BASICA DE SAUDE ARICANDUVA,RUA CAIAPO,S/N,ARICANDUVA,"RUA CAIAPO, ARICANDUVA, ARAPONGAS, PR, BRASIL",-23.49606,-51.42659,"Rua Caiapó, Arapongas","23 29m 45.816s S, 51 25m 35.724s W",
PR,ARAPONGAS,UNIDADE BASICA DE SAUDE AGUIAS,RUA BIGUA UNA,S/N,CONJUNTO MONTE CARLO,"RUA BIGUA UNA, CONJUNTO MONTE CARLO, ARAPONGAS, PR, BRASIL",-23.38202,-51.41566,"Rua Biguá Una, 86704-200, Arapongas","23 22m 55.272s S, 51 24m 56.376s W",86704-200
PR,ARAPONGAS,UNIDADE BASICA DE SAUDE ULISSES GUIMARAES,RUA FURRIEL,314,CONJ ULISSES GUIMAR,"RUA FURRIEL, CONJ ULISSES GUIMAR, ARAPONGAS, PR, BRASIL",-23.4197,-51.41997,"Rua Furriel, Arapongas","23 25m 10.92s S, 51 25m 11.892s W",
PR,ARAPONGAS,UNIDADE BASICA DE SAUDE SAN RAPHAEL,RUA MAITACA ROXA,400,JARDIM SAN RAPHAEL I,"RUA MAITACA ROXA, JARDIM SAN RAPHAEL I, ARAPONGAS, PR, BRASIL",-23.39508,-51.41032,"Rua Maitaca-Roxa, 86703, 86704, Arapongas","23 23m 42.288s S, 51 24m 37.152s W",86703
PR,ARAPONGAS,UNIDADE BASICA DE SAUDE CENTRO POMBAS,RUA HARPIA,108,CENTRO,"RUA HARPIA, CENTRO, ARAPONGAS, PR, BRASIL",-23.40855,-51.43976,"Rua Harpia, 86700, Arapongas","23 24m 30.78s S, 51 26m 23.136s W",86700
PR,ARAPONGAS,UNIDADE BASICA DE SAUDE VILA SAO JOAO,RUA MAINA,27,VILA SAO JOAO,"RUA MAINA, VILA SAO JOAO, ARAPONGAS, PR, BRASIL",-24.56032,-54.08047,"Rua São João del Rey, Marechal Cândido Rondon","24 33m 37.152s S, 54 4m 49.692s W",
PR,ARAPONGAS,UNIDADE BASICA DE SAUDE VILA TRIANGULO,RUA PARDAL,348,VILA TRIANGULO,"RUA PARDAL, VILA TRIANGULO, ARAPONGAS, PR, BRASIL",-23.40329,-51.45119,"Rua Pardal, Arapongas","23 24m 11.844s S, 51 27m 4.284s W",
PR,ARAPONGAS,UNIDADE BASICA DE SAUDE VILA SAMPAIO,RUA EMA,492,VILA SAMPAIO,"RUA EMA, VILA SAMPAIO, ARAPONGAS, PR, BRASIL",-23.40733,-51.42643,"Rua Ema, Arapongas","23 24m 26.388s S, 51 25m 35.148s W",
PR,ARAPOTI,UNIDADE DE SAUDE SANTA RITA,JOSE CORREA,S/N,JARDIM ARATINGA,"JOSE CORREA, JARDIM ARATINGA, ARAPOTI, PR, BRASIL",-24.1406,-49.83109,"Rua Dezidério José Correia, Arapoti","24 8m 26.16s S, 49 49m 51.924s W",
PR,ARAPOTI,UNIDADE DE SAUDE HUMAITA,R FRANCISCO LUIZ ESTEVES,670,VILA HUMAITA,"R FRANCISCO LUIZ ESTEVES, VILA HUMAITA, ARAPOTI, PR, BRASIL",-24.1404719,-49.8243515,"Rua Francisco Luiz Esteves, Vila Santa Mônica, Arapoti, Região Geográfica Imediata de Ponta Grossa, Região Geográfica Intermediária de Ponta Grossa, Paraná, Região Sul, 84990-000, Brasil","24 8m 25.6988s S, 49 49m 27.6654s W",84990-000
PR,ARAPOTI,UNIDADE DE SAUDE JARDIM CERES,R RUBENS BORSATO,267,JARDIM CERES,"R RUBENS BORSATO, JARDIM CERES, ARAPOTI, PR, BRASIL",-24.13931,-49.8338,"Avenida Rubens Borsatto, 84990-000, Arapoti","24 8m 21.516s S, 49 50m 1.68s W",84990-000
PR,ARAPOTI,UNIDADE DE SAUDE VILA DOS FUNCIONARIOS,ROMANA CARNEIRO KLUPPEL,S/N,VILA DOS FUNCIONARIO,"ROMANA CARNEIRO KLUPPEL, VILA DOS FUNCIONARIO, ARAPOTI, PR, BRASIL",-24.1307,-49.84249,"Avenida Romana Carneiro Kluppel, 84990-000, Arapoti","24 7m 50.52s S, 49 50m 32.964s W",84990-000
PR,ARAPOTI,POSTO DE SAUDE CERRADO DAS CINZAS,AVENIDA NOSSA SENHORA DO CARMO,S/N,CERRADO DAS CINZAS,"AVENIDA NOSSA SENHORA DO CARMO, CERRADO DAS CINZAS, ARAPOTI, PR, BRASIL",-24.03589,-49.92213,"Rua Nossa Senhora do Carmo, 84990-000, Arapoti","24 2m 9.204s S, 49 55m 19.668s W",84990-000
PR,ARAPOTI,POSTO DE SAUDE ALPHAVILLE,RUA AURELIO CARNEIRO,480,JD ALPHAVILLE,"RUA AURELIO CARNEIRO, JD ALPHAVILLE, ARAPOTI, PR, BRASIL",-24.15069,-49.82692,"Rua Aurélio Carneiro, 84990-000, Arapoti","24 9m 2.484s S, 49 49m 36.912s W",84990-000
PR,ARAPOTI,POSTO DE SAUDE CALOGERAS,PROFESSORA JOANA CRISTINA LOPES,S/N,CALOGERAS,"PROFESSORA JOANA CRISTINA LOPES, CALOGERAS, ARAPOTI, PR, BRASIL",-23.99237,-49.82329,"Rua Professora Joana C. Lopes, 84995-000, Arapoti","23 59m 32.532s S, 49 49m 23.844s W",84995-000
PR,ARAPOTI,UNIDADE DE SAUDE VILA ROMANA,R ESTEFANO FELIPE,S/N,VILA ROMANA,"R ESTEFANO FELIPE, VILA ROMANA, ARAPOTI, PR, BRASIL",-24.1430553,-49.8167861,"Rua Estefano Felipe, Vila Romana I, Arapoti, Região Geográfica Imediata de Ponta Grossa, Região Geográfica Intermediária de Ponta Grossa, Paraná, Região Sul, 84990-000, Brasil","24 8m 34.9991s S, 49 49m 0.42996s W",84990-000
PR,ARAPUA,POSTO DE SAUDE ROMEOPOLIS,RUA BRASIL,S/N,ROMEOPOLIS,"RUA BRASIL, ROMEOPOLIS, ARAPUA, PR, BRASIL",-24.3760569,-51.8131904,"Rua Brasil, Romeópolis, Arapuã, Região Geográfica Imediata de Ivaiporã, Região Geográfica Intermediária de Londrina, Paraná, Região Sul, Brasil","24 22m 33.8048s S, 51 48m 47.4854s W",
PR,ARAPUA,POSTO DE SAUDE DO ALTO PATRIMONIO,RUA PRINCIPAL,S/N,ALTO PATRIMONIO,"RUA PRINCIPAL, ALTO PATRIMONIO, ARAPUA, PR, BRASIL",-21.02484,-43.41413,"Praça Maurino Dias do Nascimento & Rua Principal, 36260, Alto Rio Doce","21 1m 29.424s S, 43 24m 50.868s W",36260
PR,ARAPUA,POSTO DE SAUDE BENTIVI,RUA ARAPONGAS,S/N,BEN TE VI,"RUA ARAPONGAS, BEN TE VI, ARAPUA, PR, BRASIL",-23.40418,-51.43827,"Rua Bem-te-vi, 86701-421, Arapongas","23 24m 15.048s S, 51 26m 17.772s W",86701-421
PR,ARAPUA,UNIDADE BASICA DE SAUDE DE ARAPUA,RUA DA CEREJEIRAS,303,CENTRO,"RUA DA CEREJEIRAS, CENTRO, ARAPUA, PR, BRASIL",-23.80538,-45.40093,"Rua da Praia, 11600, 11608, São Sebastião","23 48m 19.368s S, 45 24m 3.348s W",11600
PR,ARAPUA,POSTO DE SAUDE DE ALTO LAGEADO,RUA PRINCIPAL,S/N,LAGEADO,"RUA PRINCIPAL, LAGEADO, ARAPUA, PR, BRASIL",-15.63316,-49.63387,"Rua Principal Praça, 76335-000, Uruana","15 37m 59.376s S, 49 38m 1.932s W",76335-000
PR,ARARUNA,UNIDADE BASICA DE SAUDE DR GENESIO BERNARDO,RUA RIO DE JANEIRO,S/N,JARDIM AQUARIUS,"RUA RIO DE JANEIRO, JARDIM AQUARIUS, ARARUNA, PR, BRASIL",-23.93063,-52.49083,"Rua Rio de Janeiro, 87260-000, Araruna","23 55m 50.268s S, 52 29m 26.988s W",87260-000
PR,ARARUNA,CENTRO MUNICIPAL DE SAUDE DE ARARUNA,RUA E,821,JARDIM ESPERANCA,"RUA E, JARDIM ESPERANCA, ARARUNA, PR, BRASIL",-14.68135,-42.50941,"Praça Jardim da Esperança & Rua Engenheiro Antônio Pinto, 46330, Licínio de Almeida","14 40m 52.86s S, 42 30m 33.876s W",46330
PR,ARARUNA,POSTO DE SAUDE SAO VICENTE,RUA MANAUS,S/N,SAO VICENTE,"RUA MANAUS, SAO VICENTE, ARARUNA, PR, BRASIL",-24.0378133,-52.6132218,"Rua Manaus, São Vicente, Araruna, Região Geográfica Imediata de Campo Mourão, Região Geográfica Intermediária de Maringá, Paraná, Região Sul, Brasil","24 2m 16.1279s S, 52 36m 47.5985s W",
PR,ARARUNA,MINI POSTO DE SAUDE NOVA BRASILIA,NOVA BRASILIA,S/N,NOVA BRASILIA,"NOVA BRASILIA, NOVA BRASILIA, ARARUNA, PR, BRASIL",-23.97234,-52.55988,"Nova Brasília, Araruna","23 58m 20.424s S, 52 33m 35.568s W",
PR,ARARUNA,POSTO DE SAUDE BEIJA FLOR,RUA ROUXINOL,S/N,CONJUNTO BEIJA FLOR,"RUA ROUXINOL, CONJUNTO BEIJA FLOR, ARARUNA, PR, BRASIL",-23.24412,-51.65745,"Rua Rouxinol & Rua Beija Flor, 86730, Astorga","23 14m 38.832s S, 51 39m 26.82s W",86730
PR,ARARUNA,POSTO DE SAUDE SAO GERALDO,RUA 07,S/N,SAO GERALDO,"RUA 07, SAO GERALDO, ARARUNA, PR, BRASIL",-24.47401,-53.95331,"Rua São Geraldo, Nova Santa Rosa","24 28m 26.436s S, 53 57m 11.916s W",
PR,ARAUCARIA,UBSF SHANGRI LA,RUA MATO GROSSO,1150,IGUACU,"RUA MATO GROSSO, IGUACU, ARAUCARIA, PR, BRASIL",-25.60322,-49.38829,"Rua Mato Grosso, 83701-260, Araucária","25 36m 11.592s S, 49 23m 17.844s W",83701-260
PR,ARAUCARIA,UBSF SANTA TEREZINHA,RUA CORONEL MANOEL GONCALVES FERREIRA,289,GUAJUVIRA,"RUA CORONEL MANOEL GONCALVES FERREIRA, GUAJUVIRA, ARAUCARIA, PR, BRASIL",-25.59708,-49.50944,"Rua Coronel Manoel Gonçalves Ferreira, 83725-000, Araucária","25 35m 49.488s S, 49 30m 33.984s W",83725-000
PR,ARAUCARIA,UBSF PADRE FRANCISCO BELINOWSKI,RUA EDUARDO SOBANIA,225,TOMAZ COELHO,"RUA EDUARDO SOBANIA, TOMAZ COELHO, ARAUCARIA, PR, BRASIL",-25.55111,-49.35161,"Rua Eduardo Sobania, 83707, Araucária","25 33m 3.996s S, 49 21m 5.796s W",83707
PR,ARAUCARIA,UBSF NOSSA SENHORA DAS GRACAS,ESTRADA MUNICIPAL PARA O TIETE,S/N,TIETE,"ESTRADA MUNICIPAL PARA O TIETE, TIETE, ARAUCARIA, PR, BRASIL",-25.66466,-49.34633,"Estrada Municipal Tietê, Fazenda Rio Grande","25 39m 52.776s S, 49 20m 46.788s W",
PR,ARAUCARIA,UBSF VALMIR HERVES DE LIMA,RUA TESOUREIRO,1759,JARDIM CALIFORNIA,"RUA TESOUREIRO, JARDIM CALIFORNIA, ARAUCARIA, PR, BRASIL",-25.54491,-49.38529,"Rua Tesoureiro, Araucária","25 32m 41.676s S, 49 23m 7.044s W",
PR,ARAUCARIA,UBS DOM INACIO KRAUSE,AVENIDA INDEPENDENCIA,1256,BOQUEIRAO,"AVENIDA INDEPENDENCIA, BOQUEIRAO, ARAUCARIA, PR, BRASIL",-25.5785,-49.41752,"Avenida Independência, 83703, 83704, Araucária","25 34m 42.6s S, 49 25m 3.072s W",83703
PR,ARAUCARIA,UBSF NOSSA SENHORA APARECIDA,ESTRADA MUNICIPAL PARA CATANDUVAS DO SUL,S/N,LAGOA GRANDE,"ESTRADA MUNICIPAL PARA CATANDUVAS DO SUL, LAGOA GRANDE, ARAUCARIA, PR, BRASIL",-23.41265,-50.34966,"Estrada Municipal para Jundiaí do Sul, 86490-000, Ribeirão do Pinhal","23 24m 45.54s S, 50 20m 58.776s W",86490-000
PR,ARAUCARIA,UBSF COLONIA CRISTINA,AVENIDA SAO CASEMIRO,S/N,COLONIA CRISTINA,"AVENIDA SAO CASEMIRO, COLONIA CRISTINA, ARAUCARIA, PR, BRASIL",-25.52648,-49.47798,"Avenida São Casemiro, 83705, Araucária","25 31m 35.328s S, 49 28m 40.728s W",83705
PR,ARAUCARIA,UBSF FAZENDINHA,ESTRADA MUNICIPAL PARA O TIETE KM 9,S/N,FAZENDINHA,"ESTRADA MUNICIPAL PARA O TIETE KM 9, FAZENDINHA, ARAUCARIA, PR, BRASIL",-16.08817,-48.07696,"Estrada Municipal para o Alagado, 9, 72860, Novo Gama","16 5m 17.412s S, 48 4m 37.056s W",72860
PR,ARAUCARIA,UBS ALCEU DO VALLE FERNANDES,RUA MARANHAO,2149,COSTEIRA,"RUA MARANHAO, COSTEIRA, ARAUCARIA, PR, BRASIL",-25.60507,-49.37895,"Rua Maranhão, 83701, Araucária","25 36m 18.252s S, 49 22m 44.22s W",83701
PR,ARAUCARIA,UBSF NOSSA SENHORA DE FATIMA,RUA FELIX TAMPLIN,47,VILA ANGELICA,"RUA FELIX TAMPLIN, VILA ANGELICA, ARAUCARIA, PR, BRASIL",-25.53206,-49.36253,"Rua Félix Tamplim, 83707-104, Araucária","25 31m 55.416s S, 49 21m 45.108s W",83707-104
PR,ARAUCARIA,UBS SANTA MONICA,JOAO IGNACIO COCO DENIS,44,JARDIM IGUACU,"JOAO IGNACIO COCO DENIS, JARDIM IGUACU, ARAUCARIA, PR, BRASIL",-25.59491,-49.38591,"Rua João Ignácio Coco Denis, 83701-206, Araucária","25 35m 41.676s S, 49 23m 9.276s W",83701-206
PR,ARAUCARIA,CASA DE CUSTODIA DE CURITIBA,RUA JOSE CHEIFERT,S/N,CENTRO,"RUA JOSE CHEIFERT, CENTRO, ARAUCARIA, PR, BRASIL",-25.51703,-49.34668,"Rua José Cheinfert, 83707-690, Araucária","25 31m 1.308s S, 49 20m 48.048s W",83707-690
PR,ARAUCARIA,UBSF SAO JOSE,RUA PRIMULA,1830,CAMPINA DA BARRA,"RUA PRIMULA, CAMPINA DA BARRA, ARAUCARIA, PR, BRASIL",-25.62235,-49.36928,"Rua Prímula, Araucária","25 37m 20.46s S, 49 22m 9.408s W",
PR,ARAUCARIA,UBS DR SILVIO ROBERTO SKRABA,RUA ANDORINHAS,151,INDUSTRIAL,"RUA ANDORINHAS, INDUSTRIAL, ARAUCARIA, PR, BRASIL",-26.23822,-52.66997,"Rua Araucária, 85506-060, Pato Branco","26 14m 17.592s S, 52 40m 11.892s W",85506-060
PR,ARAUCARIA,UBS SAO FRANCISCO DE ASSIS,ESTELA LESNIOWSKI WZOREK,360,FAZENDA VELHA,"ESTELA LESNIOWSKI WZOREK, FAZENDA VELHA, ARAUCARIA, PR, BRASIL",-25.57821,-49.40422,"Rua Estela Lesniowski Wzorek, 83703-420, Araucária","25 34m 41.556s S, 49 24m 15.192s W",83703-420
PR,ARAUCARIA,UBS ARAUCARIA,GUILHERME DA MOTTA CORREIA,55,CENTRO,"GUILHERME DA MOTTA CORREIA, CENTRO, ARAUCARIA, PR, BRASIL",-25.58929,-49.40496,"Rua Doutor Guilherme da Motta Correia, 83702-210, Araucária","25 35m 21.444s S, 49 24m 17.856s W",83702-210
PR,ARIRANHA DO IVAI,CENTRO DE SAUDE ALCIR WIELEVSKI,RUA ROBERTO MIGUEL GOEDERT,S/N,CENTRO,"RUA ROBERTO MIGUEL GOEDERT, CENTRO, ARIRANHA DO IVAI, PR, BRASIL",-24.38353,-51.58912,"Rua Prefeito Roberto Miguel Guedert, 86880-000, Ariranha do Ivaí","24 23m 0.708s S, 51 35m 20.832s W",86880-000
PR,ASSAI,CENTRO DE SAUDE ASSAI,RUA MANOEL RIBAS,1533,CENTRO,"RUA MANOEL RIBAS, CENTRO, ASSAI, PR, BRASIL",-23.37316,-50.84406,"Rua Manoel Ribas, 86220, Assaí","23 22m 23.376s S, 50 50m 38.616s W",86220
PR,ASSAI,POSTO DE SAUDE PAU DALHO,AV JOAO BATISTA RAMOS,S/N,PAU DALHO,"AV JOAO BATISTA RAMOS, PAU DALHO, ASSAI, PR, BRASIL",-21.65065,-46.39739,"Praça São João Batista & Rua João Ramos Nogueira, 37720, Botelhos","21 39m 2.34s S, 46 23m 50.604s W",37720
PR,ASSAI,POSTO DE SAUDE DA VILA NOVA,RUA PRIMAVERA,S/N,VILA NOVA,"RUA PRIMAVERA, VILA NOVA, ASSAI, PR, BRASIL",-2.60124,-44.1987,"Rua Primavera, 65092-691, São Luís","2 36m 4.464s S, 44 11m 55.32s W",65092-691
PR,ASSAI,UNIDADE BASICA DE SAUDE VILA ESPERANCA,RUA VICENTE ILARIO DA CRUZ,S/N,VILA ESPERANCA,"RUA VICENTE ILARIO DA CRUZ, VILA ESPERANCA, ASSAI, PR, BRASIL",-24.80113,-52.7093,"Rua Vicente N. da Cruz, 85280-000, Altamira do Paraná","24 48m 4.068s S, 52 42m 33.48s W",85280-000
PR,ASSAI,POSTO DE SAUDE DA COPASA,RUA VEREADOR JOSE CARVALHO COSTA,S/N,CJ COPAZA,"RUA VEREADOR JOSE CARVALHO COSTA, CJ COPAZA, ASSAI, PR, BRASIL",-23.38274,-50.85032,"Rua Vereador João Carvalho da Costa, 86220-000, Assaí","23 22m 57.864s S, 50 51m 1.152s W",86220-000
PR,ASSAI,UAPSF UN ATEN PRIMARIA SAUDE DA FAMILIA DR DOMINGOS JULIAO,RUA GETULIO VARGAS,339,CENTRO,"RUA GETULIO VARGAS, CENTRO, ASSAI, PR, BRASIL",-23.37723,-50.84457,"Rua Getúlio Vargas, Assaí","23 22m 38.028s S, 50 50m 40.452s W",
PR,ASSIS CHATEAUBRIAND,USF DE ENCANTADO,RUA SAO PEDRO,S/N,ENCANTADO DO OESTE,"RUA SAO PEDRO, ENCANTADO DO OESTE, ASSIS CHATEAUBRIAND, PR, BRASIL",-24.416254,-53.65502729999999,"Rua São Pedro, Encantado d'Oeste, Assis Chateaubriand, Região Geográfica Imediata de Toledo, Região Geográfica Intermediária de Cascavel, Paraná, Região Sul, 85936-000, Brasil","24 24m 58.5144s S, 53 39m 18.0983s W",85936-000
PR,ASSIS CHATEAUBRIAND,USF GILIO BORTOT CRISTO REI,RUA SAO BARTOLOMEU,25,CRISTO REI,"RUA SAO BARTOLOMEU, CRISTO REI, ASSIS CHATEAUBRIAND, PR, BRASIL",-24.40799,-53.5398,"Rua São Bartolomeu, 85935-000, Assis Chateaubriand","24 24m 28.764s S, 53 32m 23.28s W",85935-000
PR,ASSIS CHATEAUBRIAND,POSTO DE SAUDE DE SILVEIROPOLIS,RUA EDUINO TELLES RUDGE,S/N,SILVEIROPOLIS,"RUA EDUINO TELLES RUDGE, SILVEIROPOLIS, ASSIS CHATEAUBRIAND, PR, BRASIL",-24.29405,-53.57009,"Rua Eduíno Telles Rudge, 85935-000, Assis Chateaubriand","24 17m 38.58s S, 53 34m 12.324s W",85935-000
PR,ASSIS CHATEAUBRIAND,CS DR OSVALDO I ISHIDA,RUA CURITIBA,535,AMERICA,"RUA CURITIBA, AMERICA, ASSIS CHATEAUBRIAND, PR, BRASIL",-24.4068538,-53.50929,"Rua Curitiba, Jardim América, Assis Chateaubriand, Região Geográfica Imediata de Toledo, Região Geográfica Intermediária de Cascavel, Paraná, Região Sul, 85935-000, Brasil","24 24m 24.6737s S, 53 30m 33.444s W",85935-000
PR,ASSIS CHATEAUBRIAND,USF DE BRAGANTINA,AVENIDA PARANA,S/N,BRAGANTINA,"AVENIDA PARANA, BRAGANTINA, ASSIS CHATEAUBRIAND, PR, BRASIL",-24.612826,-53.6125096,"Avenida Paraná, Bragantina, Assis Chateaubriand, Região Geográfica Imediata de Toledo, Região Geográfica Intermediária de Cascavel, Paraná, Região Sul, Brasil","24 36m 46.1736s S, 53 36m 45.0346s W",
PR,ASSIS CHATEAUBRIAND,USF PROFESSOR ENOQUE JOSE DE MOURA ARACA E SHEILA,RUA MARECHAL DEODORO,509,ARACA,"RUA MARECHAL DEODORO, ARACA, ASSIS CHATEAUBRIAND, PR, BRASIL",-24.4107528,-53.4919649,"Rua Marechal Deodoro, Jardim Araça, Assis Chateaubriand, Região Geográfica Imediata de Toledo, Região Geográfica Intermediária de Cascavel, Paraná, Região Sul, 85935-000, Brasil","24 24m 38.7101s S, 53 29m 31.0736s W",85935-000
PR,ASSIS CHATEAUBRIAND,USF MARIA DA CONCEICAO MARTINS PESTANA JUSSARA E PANORAMA,RUA DAS ROSAS,396,PANORAMA,"RUA DAS ROSAS, PANORAMA, ASSIS CHATEAUBRIAND, PR, BRASIL",-24.396663,-53.5021118,"Rua das Rosas, Jardim Panorama, Assis Chateaubriand, Região Geográfica Imediata de Toledo, Região Geográfica Intermediária de Cascavel, Paraná, Região Sul, 85935-000, Brasil","24 23m 47.9868s S, 53 30m 7.60248s W",85935-000
PR,ASSIS CHATEAUBRIAND,CIASP CENTRO INTEGRADO DE ASSISTENCIA EM SAUDE PUBLICA,AVENIDA MEXICO,505,PROGRESSO,"AVENIDA MEXICO, PROGRESSO, ASSIS CHATEAUBRIAND, PR, BRASIL",-24.3903847,-53.513602500000005,"Avenida México, Jardim Progresso, Assis Chateaubriand, Região Geográfica Imediata de Toledo, Região Geográfica Intermediária de Cascavel, Paraná, Região Sul, 85935-000, Brasil","24 23m 25.3849s S, 53 30m 48.969s W",85935-000
PR,ASSIS CHATEAUBRIAND,EAP JARDIM MONACO,AVENIDA RADIAL SUL,0,JARDIM EUROPA,"AVENIDA RADIAL SUL, JARDIM EUROPA, ASSIS CHATEAUBRIAND, PR, BRASIL",-24.4170125,-53.51790989999999,"Avenida Radial Sul, Jardim Europa, Assis Chateaubriand, Região Geográfica Imediata de Toledo, Região Geográfica Intermediária de Cascavel, Paraná, Região Sul, 85935-000, Brasil","24 25m 1.245s S, 53 31m 4.47564s W",85935-000
PR,ASSIS CHATEAUBRIAND,POSTO DE SAUDE DO NICE,RUA BRASIL,S/N,NICE,"RUA BRASIL, NICE, ASSIS CHATEAUBRIAND, PR, BRASIL",-24.325099800000004,-53.693380000000005,"Rua Brasil, Vila Nice, Assis Chateaubriand, Região Geográfica Imediata de Toledo, Região Geográfica Intermediária de Cascavel, Paraná, Região Sul, Brasil","24 19m 30.3593s S, 53 41m 36.168s W",
PR,ASSIS CHATEAUBRIAND,POSTO DE SAUDE ENGENHEIRO AZAURY,RUA PRINCESA IZA BEL,S/N,ENGENHEIRO AZAURY,"RUA PRINCESA IZA BEL, ENGENHEIRO AZAURY, ASSIS CHATEAUBRIAND, PR, BRASIL",-24.49249,-53.56805,"Rua Princesa Isabel, Assis Chateaubriand","24 29m 32.964s S, 53 34m 4.98s W",
PR,ASSIS CHATEAUBRIAND,UAPSF MARIA EFIGENIA FERRACINI CAMPOS,RUA CURITIBA,S/N,AMERICA,"RUA CURITIBA, AMERICA, ASSIS CHATEAUBRIAND, PR, BRASIL",-24.4068538,-53.50929,"Rua Curitiba, Jardim América, Assis Chateaubriand, Região Geográfica Imediata de Toledo, Região Geográfica Intermediária de Cascavel, Paraná, Região Sul, 85935-000, Brasil","24 24m 24.6737s S, 53 30m 33.444s W",85935-000
PR,ASSIS CHATEAUBRIAND,POSTO DE SAUDE DE TERRA NOVA,AVN TUPASSI,S/N,TERRA NOVA,"AVN TUPASSI, TERRA NOVA, ASSIS CHATEAUBRIAND, PR, BRASIL",-24.38123,-53.54252,"Estrada Tupassi, 85935-000, Assis Chateaubriand","24 22m 52.428s S, 53 32m 33.072s W",85935-000
PR,ASTORGA,UNIDADE BASICA DE SAUDE DE TUPINAMBA,AVN MARINGA,S/N,CENTRO,"AVN MARINGA, CENTRO, ASTORGA, PR, BRASIL",-26.40692,-52.35842,"Avenida Nossa Senhora da Luz, 85530-000, Clevelândia","26 24m 24.912s S, 52 21m 30.312s W",85530-000
PR,ASTORGA,UNIDADE BASICA DE SAUDE DE SANTA ZELIA,RUA JOAO DANIEL MACHADO BENETTI,S/N,CENTRO,"RUA JOAO DANIEL MACHADO BENETTI, CENTRO, ASTORGA, PR, BRASIL",-25.59363,-49.40771,"Rua João Pessoa & Praça Doutor Vicente machado, 83702, Araucária","25 35m 37.068s S, 49 24m 27.756s W",83702
PR,ASTORGA,UNIDADE BASICA DE SAUDE DE ICARA,R SAO PAULO,S/N,CENTRO,"R SAO PAULO, CENTRO, ASTORGA, PR, BRASIL",-23.17228,-51.63325,"Rua São Paulo, Astorga","23 10m 20.208s S, 51 37m 59.7s W",
PR,ASTORGA,UAPSF CLINICA INTEGRADA DE ASTORGA,RUA JOSE POZZOBON,S/N,VILA MOREIRA,"RUA JOSE POZZOBON, VILA MOREIRA, ASTORGA, PR, BRASIL",-23.22826,-51.66477,"Rua José Pozzobon, 86730-000, Astorga","23 13m 41.736s S, 51 39m 53.172s W",86730-000
PR,ASTORGA,UNIDADE BASICA DE SAUDE VITORIA REGIA,R LIDIA KOSSUDI,S/N,VITORIA REGIA,"R LIDIA KOSSUDI, VITORIA REGIA, ASTORGA, PR, BRASIL",-23.2437,-51.67259,"Rua Lídia Cetuco Kosudi, 86730-000, Astorga","23 14m 37.32s S, 51 40m 21.324s W",86730-000
PR,ASTORGA,CENTRO DE SAUDE DE ASTORGA,RUA JOAQUIM NABUCO,100,JARDIM SINUELO,"RUA JOAQUIM NABUCO, JARDIM SINUELO, ASTORGA, PR, BRASIL",-23.22882,-51.66849,"Rua Joaquim Nabuco, 86730-000, Astorga","23 13m 43.752s S, 51 40m 6.564s W",86730-000
PR,ASTORGA,UNIDADE BASICA DE SAUDE VILA OLIVIA,AVN RIO DE JANEIRO,S/N,VILA OLIVIA,"AVN RIO DE JANEIRO, VILA OLIVIA, ASTORGA, PR, BRASIL",-15.79331,-47.85062,"Estrada Acampamento Pacheco Fernandes, 70802, 70803, 70804, 73340, Brasília","15 47m 35.916s S, 47 51m 2.232s W",70802
PR,ASTORGA,UNIDADE BASICA DE SAUDE VILA NOVA,AV SAO JOAO,S/N,VILA NOVA,"AV SAO JOAO, VILA NOVA, ASTORGA, PR, BRASIL",-23.8994,-46.42437,"Rua São João, 11520-160, Cubatão","23 53m 57.84s S, 46 25m 27.732s W",11520-160
PR,ATALAIA,POSTO DE SAUDE SEBASTIAO AFONSO,RUA PRESIDENTE CASTELO BRANCO,296,CENTRO,"RUA PRESIDENTE CASTELO BRANCO, CENTRO, ATALAIA, PR, BRASIL",-23.15312,-52.05435,"Rua Presidente Castelo Branco, 87630-000, Atalaia","23 9m 11.232s S, 52 3m 15.66s W",87630-000
PR,ATALAIA,POSTO DE SAUDE JOAO DE BARRO,RUA PRINCIPAL,S/N,VILA RURAL JOAO DE B,"RUA PRINCIPAL, VILA RURAL JOAO DE B, ATALAIA, PR, BRASIL",-24.00654,-46.45682,"Rua João Batista de Siqueira, 11720-120, Praia Grande","24 0m 23.544s S, 46 27m 24.552s W",11720-120
PR,ATALAIA,UAPSF UNIDADE DE ATENCAO PRIMARIA SAUDE DA FAMILIA,RUA PRESEIDENTE CSTELO BRANCO,260,CENTRO,"RUA PRESEIDENTE CSTELO BRANCO, CENTRO, ATALAIA, PR, BRASIL",-23.15312,-52.05435,"Rua Presidente Castelo Branco, 87630-000, Atalaia","23 9m 11.232s S, 52 3m 15.66s W",87630-000
PR,BALSA NOVA,UNIDADE DE SAUDE GOVERNADOR JOSE RICHA,RUA PROFESSORA SABINA RICETO,S/N,SAO LUIZ DO PURUNA,"RUA PROFESSORA SABINA RICETO, SAO LUIZ DO PURUNA, BALSA NOVA, PR, BRASIL",-25.46943,-49.71027,"Rua Professora Sabina Serra Reicetto, 83670-000, Balsa Nova","25 28m 9.948s S, 49 42m 36.972s W",83670-000
PR,BALSA NOVA,CENTRO MEDICO BOM JESUS,RUA GETULIO VARGAS,657,CENTRO,"RUA GETULIO VARGAS, CENTRO, BALSA NOVA, PR, BRASIL",-25.58359,-49.62789,"Rua Getúlio Vargas, 83650-000, Balsa Nova","25 35m 0.924s S, 49 37m 40.404s W",83650-000
PR,BALSA NOVA,UNIDADE DE SAUDE PRESIDENTE TANCREDO NEVES,RUA VEREADOR DOMINGOS POLETTO RIBEIRO,10,BUGRE,"RUA VEREADOR DOMINGOS POLETTO RIBEIRO, BUGRE, BALSA NOVA, PR, BRASIL",-25.49821,-49.62189,"Rua Vereador Domingos Poletto Ribeiro, 83660-000, Balsa Nova","25 29m 53.556s S, 49 37m 18.804s W",83660-000
PR,BALSA NOVA,U A P S F ELIZABETHE NASCIMENTO,RUA GETULIO VARGAS,197,CENTRO,"RUA GETULIO VARGAS, CENTRO, BALSA NOVA, PR, BRASIL",-25.58359,-49.62789,"Rua Getúlio Vargas, 83650-000, Balsa Nova","25 35m 0.924s S, 49 37m 40.404s W",83650-000
PR,BALSA NOVA,UNIDADE DE SAUDE ITAMBE,RUA DOM PEDRO I,456,JARDIM SERRINHA,"RUA DOM PEDRO I, JARDIM SERRINHA, BALSA NOVA, PR, BRASIL",-25.45363,-49.60544,"Rua Dom Pedro I, 83650-000, Balsa Nova","25 27m 13.068s S, 49 36m 19.584s W",83650-000
PR,BALSA NOVA,UNIDADE DE SAUDE VEREADOR RENATO ANTONIO COLTRO,RUA SAO CAETANO,S/N,SAO CAETANO,"RUA SAO CAETANO, SAO CAETANO, BALSA NOVA, PR, BRASIL",-25.46114,-49.58572,"Rua São Caetano, 83650-000, Balsa Nova","25 27m 40.104s S, 49 35m 8.592s W",83650-000
PR,BANDEIRANTES,PRONTO ATENDIMENTO MUNICIPAL,RUA PREFEITO JOSE MARIO JUNQUEIRA,S/N,CENTRO,"RUA PREFEITO JOSE MARIO JUNQUEIRA, CENTRO, BANDEIRANTES, PR, BRASIL",-23.10671,-50.36828,"Rua Prefeito José Mário Junqueira, 86360-000, Bandeirantes","23 6m 24.156s S, 50 22m 5.808s W",86360-000
PR,BANDEIRANTES,CENTRO DE SAUDE DA MULHER E DA CRIANCA,AVENIDA EDELINA MENEGUEL RANDO,341,IBC,"AVENIDA EDELINA MENEGUEL RANDO, IBC, BANDEIRANTES, PR, BRASIL",-23.10468,-50.3689,"Avenida Edelina Meneghel Rando, 86360-000, Bandeirantes","23 6m 16.848s S, 50 22m 8.04s W",86360-000
PR,BANDEIRANTES,UNIDADE BASICA DE SAUDE SERTAOZINHO,RUA PADRE BENTO,S/N,N SRA DA CANDELARIA,"RUA PADRE BENTO, N SRA DA CANDELARIA, BANDEIRANTES, PR, BRASIL",-23.16135,-50.25137,"Rua Padre Bento, 86360, 86365, Bandeirantes","23 9m 40.86s S, 50 15m 4.932s W",86360
PR,BANDEIRANTES,UNIDADE BASICA DE SAUDE LORDANI,RUA MANOEL MARQUES GODINHO,S/N,VILA LORDANI,"RUA MANOEL MARQUES GODINHO, VILA LORDANI, BANDEIRANTES, PR, BRASIL",-23.11689,-50.37036,"Rua Manoel Marques Godinho, 86360-000, Bandeirantes","23 7m 0.804s S, 50 22m 13.296s W",86360-000
PR,BANDEIRANTES,UNIDADE BASICA DE SAUDE INVERNADA,RUA SAO SEBASTIAO,S/N,INVERNADA,"RUA SAO SEBASTIAO, INVERNADA, BANDEIRANTES, PR, BRASIL",-23.1309,-50.37326,"Rua São Sebastião, 86360-000, Bandeirantes","23 7m 51.24s S, 50 22m 23.736s W",86360-000
PR,BANDEIRANTES,UNIDADE BASICA DE SAUDE FRANCISCO TEIXEIRA RIBEIRO,PREFEITO AGENOR FERREIRA DOS SANTOS,S/N,HUMBERTO TEIXEIRA RI,"PREFEITO AGENOR FERREIRA DOS SANTOS, HUMBERTO TEIXEIRA RI, BANDEIRANTES, PR, BRASIL",-23.12048,-50.36915,"Rua Prefeito Agenor Ferreira dos Santos, 86360-000, Bandeirantes","23 7m 13.728s S, 50 22m 8.94s W",86360-000
PR,BANDEIRANTES,UNIDADE BASICA DE SAUDE BELA VISTA,RUA SUSSUMI TANAKA,S/N,BELA VISTA,"RUA SUSSUMI TANAKA, BELA VISTA, BANDEIRANTES, PR, BRASIL",-23.11901,-50.38308,"Rua Sussumi Tanaka, 86360-000, Bandeirantes","23 7m 8.436s S, 50 22m 59.088s W",86360-000
PR,BANDEIRANTES,UNIDADE BASICA DE SAUDE IBC,RUA ANTONIO RANAZE BENTIVEM,S/N,VILA IBC,"RUA ANTONIO RANAZE BENTIVEM, VILA IBC, BANDEIRANTES, PR, BRASIL",-23.26007,-50.96408,"Rua Antônio Vila Furla, 86210-000, Jataizinho","23 15m 36.252s S, 50 57m 50.688s W",86210-000
PR,BANDEIRANTES,UNIDADE BASICA DE SAUDE CENTRAL,RUA SAO PAULO,1675,CENTRO,"RUA SAO PAULO, CENTRO, BANDEIRANTES, PR, BRASIL",-23.80242,-45.39908,"Rua Três Bandeirantes, 11600, 11608, São Sebastião","23 48m 8.712s S, 45 23m 56.688s W",11600
PR,BANDEIRANTES,UNIDADE BASICA DE SAUDE IBC II,RUA SALVADOR CHIANCA,386,VILA JARDIM PARAISO,"RUA SALVADOR CHIANCA, VILA JARDIM PARAISO, BANDEIRANTES, PR, BRASIL",-23.09762,-50.37803,"Rua Salvador Chianca, 86360-000, Bandeirantes","23 5m 51.432s S, 50 22m 40.908s W",86360-000
PR,BARBOSA FERRAZ,POSTO DE SAUDE OURILANDIA,RUA XV DE NOVEMBRO,10,OURILANDIA,"RUA XV DE NOVEMBRO, OURILANDIA, BARBOSA FERRAZ, PR, BRASIL",-25.55921,-50.86397,"Rua XV de Novembro, 84500, Irati","25 33m 33.156s S, 50 51m 50.292s W",84500
PR,BARBOSA FERRAZ,POSTO DE SAUDE BOURBONIA,RUA JOAQUIM MURTINHO,100,DISTRITO,"RUA JOAQUIM MURTINHO, DISTRITO, BARBOSA FERRAZ, PR, BRASIL",-23.08112,-50.75645,"Rua Barbosa Ferraz & Rua Joaquim Geraldo Mendes, 86330, Leópolis","23 4m 52.032s S, 50 45m 23.22s W",86330
PR,BARBOSA FERRAZ,POSTO DE SAUDE PARAISO DO SUL,AVENIDA AA,100,DISTRITO,"AVENIDA AA, DISTRITO, BARBOSA FERRAZ, PR, BRASIL",-24.02996,-52.00468,"Rua Vital Brasil, Barbosa Ferraz","24 1m 47.856s S, 52 0m 16.848s W",
PR,BARBOSA FERRAZ,UNIDADE BASICA DE SAUDE SANTA RITA,RUA PIAUI,1272,VILA ROQUE,"RUA PIAUI, VILA ROQUE, BARBOSA FERRAZ, PR, BRASIL",-24.0333,-52.00409,"Rua Piauí, Barbosa Ferraz","24 1m 59.88s S, 52 0m 14.724s W",
PR,BARBOSA FERRAZ,POSTO DE SAUDE TEREZA BREDA,AVENIDA JUNQUEIRA,58,DISTRITO,"AVENIDA JUNQUEIRA, DISTRITO, BARBOSA FERRAZ, PR, BRASIL",-24.02996,-52.00468,"Rua Vital Brasil, Barbosa Ferraz","24 1m 47.856s S, 52 0m 16.848s W",
PR,BARBOSA FERRAZ,UNIDADE BASICA DE SAUDE JOAO GARCIA VILLAR,RUA COLOMBIA,S/N,VILA NOVA,"RUA COLOMBIA, VILA NOVA, BARBOSA FERRAZ, PR, BRASIL",-24.01785,-52.0038,"Rua Colômbia, 86960-000, Barbosa Ferraz","24 1m 4.26s S, 52 0m 13.68s W",86960-000
PR,BARBOSA FERRAZ,UNIDADE BASICA DE SAUDE DR JORGE AIRES CAMPELLO DE OLIVEIRA,AVENIDA CASTRO ALVES,1273,CENTRO,"AVENIDA CASTRO ALVES, CENTRO, BARBOSA FERRAZ, PR, BRASIL",-24.02949,-52.01162,"Avenida Castro Alves, Barbosa Ferraz","24 1m 46.164s S, 52 0m 41.832s W",
PR,BARBOSA FERRAZ,POSTO DE SAUDE POCINHO,RUA PRINCIPAL,100,DISTRITO,"RUA PRINCIPAL, DISTRITO, BARBOSA FERRAZ, PR, BRASIL",-24.02996,-52.00468,"Rua Vital Brasil, Barbosa Ferraz","24 1m 47.856s S, 52 0m 16.848s W",
PR,BARRACAO,UNIDADE DE PSF COPASA DE BARRACAO,RUA 61,S/N,COPASA,"RUA 61, COPASA, BARRACAO, PR, BRASIL",-26.2538,-53.62127,"Rua A, 61, 85700-000, Barracão","26 15m 13.68s S, 53 37m 16.572s W",85700-000
PR,BARRACAO,UNIDADE DE PSF BAIRRO INDUSTRIAL,BAIRRO INDUSTRIAL,S/N,INDUSTRIAL BNH,"BAIRRO INDUSTRIAL, INDUSTRIAL BNH, BARRACAO, PR, BRASIL",-16.3244,-48.95649,"Praça Americano do Brasil, 75024-090, Anápolis","16 19m 27.84s S, 48 57m 23.364s W",75024-090
PR,BARRACAO,CENTRO DE SAUDE NIS I BARRACAO,RUA RIO GRANDE DO SUL,210,CENTRO,"RUA RIO GRANDE DO SUL, CENTRO, BARRACAO, PR, BRASIL",-26.25854,-53.62876,"Rua Rio Grande do Sul, 85700-000, Barracão","26 15m 30.744s S, 53 37m 43.536s W",85700-000
PR,BARRACAO,UNIDADE DE PSF RURAL DE BARRACAO,LINHA ALEGRIA,S/N,INTERIOR,"LINHA ALEGRIA, INTERIOR, BARRACAO, PR, BRASIL",-26.25334,-53.63609,Barracão,"26 15m 12.024s S, 53 38m 9.924s W",
PR,BARRA DO JACARE,CENTRO DE SAUDE DE BARRA DO JACARE,RUA PARANA,174,CENTRO,"RUA PARANA, CENTRO, BARRA DO JACARE, PR, BRASIL",-23.11564,-50.18264,"Rua Paraná, 86385-000, Barra do Jacaré","23 6m 56.304s S, 50 10m 57.504s W",86385-000
PR,BELA VISTA DA CAROBA,MINIPOSTO VILA PROGRESSO,VILA PROGRESO,S/N,AREA RURAL,"VILA PROGRESO, AREA RURAL, BELA VISTA DA CAROBA, PR, BRASIL",-25.87741,-53.66711,Bela Vista da Caroba,"25 52m 38.676s S, 53 40m 1.596s W",
PR,BELA VISTA DA CAROBA,CENTRO DE SAUDE NIS I DE BELA VISTA DA CAROBA,AVENIDA RIO GRANDE DO SUL,S/N,CENTRO,"AVENIDA RIO GRANDE DO SUL, CENTRO, BELA VISTA DA CAROBA, PR, BRASIL",-25.87897,-53.66697,"Avenida Rio Grande do Sul, 85745, Bela Vista da Caroba","25 52m 44.292s S, 53 40m 1.092s W",85745
PR,BELA VISTA DA CAROBA,MINIPOSTO VISTA GAUCHA,LINHA VISTA GAUCHA,S/N,AREA RURAL,"LINHA VISTA GAUCHA, AREA RURAL, BELA VISTA DA CAROBA, PR, BRASIL",-25.87741,-53.66711,Bela Vista da Caroba,"25 52m 38.676s S, 53 40m 1.596s W",
PR,BELA VISTA DA CAROBA,MINIPOSTO ALTO APARECIDA,LINHA ALTO APARECIDA,S/N,AREA RURAL,"LINHA ALTO APARECIDA, AREA RURAL, BELA VISTA DA CAROBA, PR, BRASIL",-25.87741,-53.66711,Bela Vista da Caroba,"25 52m 38.676s S, 53 40m 1.596s W",
PR,BELA VISTA DO PARAISO,CS SANTA MARGARIDA,RUA MARINS A CAMARGO,232,SANTA MARGARIDA,"RUA MARINS A CAMARGO, SANTA MARGARIDA, BELA VISTA DO PARAISO, PR, BRASIL",-22.97136,-51.21043,"Rua Dr Marins Alves de Camargo, Bela Vista do Paraíso","22 58m 16.896s S, 51 12m 37.548s W",
PR,BELA VISTA DO PARAISO,UBS AUGUSTO MARQUES DE OLIVEIRA FILHO,RUA PAULO GASPARINE,649,JARDIM BELA VISTA,"RUA PAULO GASPARINE, JARDIM BELA VISTA, BELA VISTA DO PARAISO, PR, BRASIL",-23.00685,-51.19472,"Rua Paulo Setubal, 86130-000, Bela Vista do Paraíso","23 0m 24.66s S, 51 11m 40.992s W",86130-000
PR,BELA VISTA DO PARAISO,PS ORLANDO DO RIO,RUA PRESIDENTE CASTELO BRANCO,654,CENTRO,"RUA PRESIDENTE CASTELO BRANCO, CENTRO, BELA VISTA DO PARAISO, PR, BRASIL",-22.99559,-51.19164,"Rua Presidente Castelo Branco, 86130-000, Bela Vista do Paraíso","22 59m 44.124s S, 51 11m 29.904s W",86130-000
PR,BITURUNA,POSTO DE SAUDE DE AUGUSTO LOUREIRO,COLONIA AUGUSTO LOUREIRO,S/N,RURAL,"COLONIA AUGUSTO LOUREIRO, RURAL, BITURUNA, PR, BRASIL",-25.48186,-49.3694,"Estrada da Colônia Augusta, 81265-330, Curitiba","25 28m 54.696s S, 49 22m 9.84s W",81265-330
PR,BITURUNA,UNIDADE BASICA DE SAUDE LIBERA ROSSONI,AVENIDA BENTO MUNHOZ DA ROCHA NETTO,1191,SAO VICENTE,"AVENIDA BENTO MUNHOZ DA ROCHA NETTO, SAO VICENTE, BITURUNA, PR, BRASIL",-25.53697,-48.52986,"Avenida Bento Munhoz da Rocha Neto, 83212, 83215, Paranaguá","25 32m 13.092s S, 48 31m 47.496s W",83212
PR,BITURUNA,POSTO DE SAUDE SAO JOAO DO CERRO AGUDO,COMUNIDADE NOSSO SENHOR DO BONFIM,S/N,ASSENTAMENTO 27 DE O,"COMUNIDADE NOSSO SENHOR DO BONFIM, ASSENTAMENTO 27 DE O, BITURUNA, PR, BRASIL",-23.78628,-53.07517,"Rua Nossa Senhora de Fátima, 27, 87400-000, Cruzeiro do Oeste","23 47m 10.608s S, 53 4m 30.612s W",87400-000
PR,BITURUNA,POSTO DE SAUDE SAO JOAO,SAO JOAO,S/N,SAO JOAO,"SAO JOAO, SAO JOAO, BITURUNA, PR, BRASIL",-26.16943,-51.58061,"Estrada Bairro São João, 84640-000, Bituruna","26 10m 9.948s S, 51 34m 50.196s W",84640-000
PR,BITURUNA,UNIDADE BASICA DE SAUDE DR SERAFIN MIRON MARTINS,ERNESTO BET,S/N,NOSSA SENHORA APAREC,"ERNESTO BET, NOSSA SENHORA APAREC, BITURUNA, PR, BRASIL",-10.57977,-37.34075,"Rua Nossa Senhora de Lourdes, 49560-000, Moita Bonita","10 34m 47.172s S, 37 20m 26.7s W",49560-000
PR,BITURUNA,UA PSF UNIDADE BASICA DE SAUDE DR OSCAR GEYER,RUA MAXIMILIANO GRESELLE,49,CENTRO,"RUA MAXIMILIANO GRESELLE, CENTRO, BITURUNA, PR, BRASIL",-26.15855,-51.55614,"Rua Maximiliano Gresele, 84640-000, Bituruna","26 9m 30.78s S, 51 33m 22.104s W",84640-000
PR,BITURUNA,UNIDADE BASICA DE SAUDE DR LINO ZINI,SANTO ANTONIO DO IRATIM,S/N,RURAL,"SANTO ANTONIO DO IRATIM, RURAL, BITURUNA, PR, BRASIL",-26.15827,-51.41227,"Santo Antônio do Iratim, Bituruna","26 9m 29.772s S, 51 24m 44.172s W",
PR,BITURUNA,UNIDADE BASICA DE SAUDE CLEMENS FIORELLI,AVENIDA FARID ABRAHAO,S/N,VILA MARIANA,"AVENIDA FARID ABRAHAO, VILA MARIANA, BITURUNA, PR, BRASIL",-26.15804,-51.54113,"Avenida Prefeito Farid Abrahão, 84640-000, Bituruna","26 9m 28.944s S, 51 32m 28.068s W",84640-000
PR,BOA ESPERANCA,POSTO DE SAUDE DE PARANAGUACU,AVENIDA BRASIL,S/N,DISTRITO,"AVENIDA BRASIL, DISTRITO, BOA ESPERANCA, PR, BRASIL",-24.3348153,-52.8088673,"Avenida Brasil, Distrito (Paraguaçu), Boa Esperança, Região Geográfica Imediata de Campo Mourão, Região Geográfica Intermediária de Maringá, Paraná, Região Sul, Brasil","24 20m 5.33508s S, 52 48m 31.9223s W",
PR,BOA ESPERANCA,CENTRO DE SAUDE DE BOA ESPERANCA,RUA RIO DE JANEIRO,205,CENTRO,"RUA RIO DE JANEIRO, CENTRO, BOA ESPERANCA, PR, BRASIL",-24.24422,-52.78587,"Rua Rio de Janeiro, 87390-000, Boa Esperança","24 14m 39.192s S, 52 47m 9.132s W",87390-000
PR,BOA ESPERANCA,POSTO DE SAUDE DE ALTO PALMITAL,AVENIDA PRINCIPAL,S/N,DISTRITO,"AVENIDA PRINCIPAL, DISTRITO, BOA ESPERANCA, PR, BRASIL",-25.34667,-49.23564,"Rua Principal & Rua Boa Esperança, 83505, Almirante Tamandaré","25 20m 48.012s S, 49 14m 8.304s W",83505
PR,BOA ESPERANCA DO IGUACU,UNIDADE DE SAUDE DA FAMILIA CENTRO,AVENIDA VALMIR ANTONIO ALEXANDRE,S/N,CENTRO,"AVENIDA VALMIR ANTONIO ALEXANDRE, CENTRO, BOA ESPERANCA DO IGUACU, PR, BRASIL",-25.6367,-53.21351,"Avenida Vereador Valmir Antônio Alexandre, 85680, Boa Esperança do Iguaçu","25 38m 12.12s S, 53 12m 48.636s W",85680
PR,BOA ESPERANCA DO IGUACU,CENTRO DE SAUDE NIS I BOA ESP DO IGUACU,RUA VER VALMIR A ALEXANDRE,S/N,CENTRO,"RUA VER VALMIR A ALEXANDRE, CENTRO, BOA ESPERANCA DO IGUACU, PR, BRASIL",-25.6367,-53.21351,"Avenida Vereador Valmir Antônio Alexandre, 85680, Boa Esperança do Iguaçu","25 38m 12.12s S, 53 12m 48.636s W",85680
PR,BOA VENTURA DE SAO ROQUE,POSTO DE SAUDE CACHOEIRINHA,CACHOEIRINHA,S/N,ZONA RURAL,"CACHOEIRINHA, ZONA RURAL, BOA VENTURA DE SAO ROQUE, PR, BRASIL",-24.88363,-51.54527,Boa Ventura de São Roque,"24 53m 1.068s S, 51 32m 42.972s W",
PR,BOA VENTURA DE SAO ROQUE,POSTO DE SAUDE SEDE,CENTRO,0,CENTRO,"CENTRO, CENTRO, BOA VENTURA DE SAO ROQUE, PR, BRASIL",-24.88363,-51.54527,Boa Ventura de São Roque,"24 53m 1.068s S, 51 32m 42.972s W",
PR,BOA VENTURA DE SAO ROQUE,CENTRO DE SAUDE BOA VENTURA UNIDADE BASICA DE SAUDE,CENTRO,S/N,CENTRO,"CENTRO, CENTRO, BOA VENTURA DE SAO ROQUE, PR, BRASIL",-24.88363,-51.54527,Boa Ventura de São Roque,"24 53m 1.068s S, 51 32m 42.972s W",
PR,BOA VENTURA DE SAO ROQUE,POSTO DE SAUDE SITIO,SITIO,S/N,ZONA RURAL,"SITIO, ZONA RURAL, BOA VENTURA DE SAO ROQUE, PR, BRASIL",-24.88363,-51.54527,Boa Ventura de São Roque,"24 53m 1.068s S, 51 32m 42.972s W",
PR,BOA VISTA DA APARECIDA,UNIDADE BASICA DE SAUDE DA FAMILIA SAO SEBASTIAO,LINHA SAO SEBASTIAO,S/N,INTERIOR,"LINHA SAO SEBASTIAO, INTERIOR, BOA VISTA DA APARECIDA, PR, BRASIL",-25.4264,-53.41135,"Linha São Cristóvão, 85780-000, Boa Vista da Aparecida","25 25m 35.04s S, 53 24m 40.86s W",85780-000
PR,BOA VISTA DA APARECIDA,UNIDADE BASICA DE SAUDE DA FAMILIA DE BOA VISTA DA APARECIDA,RUA 22 DE DEZEMBRO,1090,CENTRO,"RUA 22 DE DEZEMBRO, CENTRO, BOA VISTA DA APARECIDA, PR, BRASIL",-25.43596,-53.40888,"Rua Vinte e Dois de Dezembro, 22, 85780-000, Boa Vista da Aparecida","25 26m 9.456s S, 53 24m 31.968s W",85780-000
PR,BOA VISTA DA APARECIDA,UNIDADE BASICA DE SAUDE PREFEITO JOSE CARLOS HENRICHS,RUA ALTINO PEREIRA RAMOS,392,CENTRO,"RUA ALTINO PEREIRA RAMOS, CENTRO, BOA VISTA DA APARECIDA, PR, BRASIL",-25.43703,-53.41382,"Rua Altino Pereira Ramos, 85780-000, Boa Vista da Aparecida","25 26m 13.308s S, 53 24m 49.752s W",85780-000
PR,BOA VISTA DA APARECIDA,UNIDADE BASICA DE SAUDE DA FAMILIA SEVERINO BETT,RUA CELMO MIRANDA,1222,ALTO DA COLINA,"RUA CELMO MIRANDA, ALTO DA COLINA, BOA VISTA DA APARECIDA, PR, BRASIL",-25.4403,-53.40684,"Rua Celmo Miranda, 85780-000, Boa Vista da Aparecida","25 26m 25.08s S, 53 24m 24.624s W",85780-000
PR,BOA VISTA DA APARECIDA,UNIDADE BASICA DE SAUDE DA FAMILIA FLOR DA SERRA,DISTRITO DA LINHA FLORA DA SERRA,S/N,INTERIOR,"DISTRITO DA LINHA FLORA DA SERRA, INTERIOR, BOA VISTA DA APARECIDA, PR, BRASIL",-25.4367,-53.40878,Boa Vista da Aparecida,"25 26m 12.12s S, 53 24m 31.608s W",
PR,BOA VISTA DA APARECIDA,UNIDADE BASICA DE SAUDE DA FAMILIA PROGRESSO ANTONIA Z ZENI,LINHA PROGRESSO,S/N,LINHA,"LINHA PROGRESSO, LINHA, BOA VISTA DA APARECIDA, PR, BRASIL",-25.4264,-53.41135,"Linha São Cristóvão, 85780-000, Boa Vista da Aparecida","25 25m 35.04s S, 53 24m 40.86s W",85780-000
PR,BOA VISTA DA APARECIDA,C S DE BOA VISTA DE APARECIDA,RUA 22 DE DEZEMBRO,1030,CENTRO,"RUA 22 DE DEZEMBRO, CENTRO, BOA VISTA DA APARECIDA, PR, BRASIL",-25.43596,-53.40888,"Rua Vinte e Dois de Dezembro, 22, 85780-000, Boa Vista da Aparecida","25 26m 9.456s S, 53 24m 31.968s W",85780-000
PR,BOCAIUVA DO SUL,UNIDADE DE SAUDE ELCIO BERTI,RUA MARIA DA SILVA FRACARO,33,VILA VELHA,"RUA MARIA DA SILVA FRACARO, VILA VELHA, BOCAIUVA DO SUL, PR, BRASIL",-25.20345,-49.11069,"Rua Maria da Silva Fracaro, 83450-000, Bocaiúva do Sul","25 12m 12.42s S, 49 6m 38.484s W",83450-000
PR,BOCAIUVA DO SUL,UNIDADE DE SAUDE CARMEM LUCIA DE MARI RIBAS,RUA HILTON SANTOS,102,SAO MARCOS,"RUA HILTON SANTOS, SAO MARCOS, BOCAIUVA DO SUL, PR, BRASIL",-25.21791,-49.1038,"Rua Hilton Santos, 83450-000, Bocaiúva do Sul","25 13m 4.476s S, 49 6m 13.68s W",83450-000
PR,BOCAIUVA DO SUL,UNIDADE DE SAUDE ACRYDES LAZAROTTO SANTOS,RUA MIGUEL COSTACURTA,180,JARDIM SANTA HELENA,"RUA MIGUEL COSTACURTA, JARDIM SANTA HELENA, BOCAIUVA DO SUL, PR, BRASIL",-25.20597,-49.1126,"Rua Miguel Costa Curta, 83450-000, Bocaiúva do Sul","25 12m 21.492s S, 49 6m 45.36s W",83450-000
PR,BOM JESUS DO SUL,CENTRO DE SAUDE NIS I BOM JESUS DO SUL,RUA SAO PAULO,S/N,CENTRO,"RUA SAO PAULO, CENTRO, BOM JESUS DO SUL, PR, BRASIL",-26.19404,-53.60457,"Rua São Paulo, 85708-000, Bom Jesus do Sul","26 11m 38.544s S, 53 36m 16.452s W",85708-000
PR,BOM SUCESSO,UNIDADE BASICA DE SAUDE LUIZ BRUGNOLO NETO,RUA RECIFE,457,VILA BOM FIM,"RUA RECIFE, VILA BOM FIM, BOM SUCESSO, PR, BRASIL",-23.70688,-51.7629,"Rua Bom Fim, 86940-000, Bom Sucesso","23 42m 24.768s S, 51 45m 46.44s W",86940-000
PR,BOM SUCESSO,CENTRO DE SAUDE DE BOM SUCESSO,RUA CLEMENTE JOSE DA SILVA,177,CENTRO,"RUA CLEMENTE JOSE DA SILVA, CENTRO, BOM SUCESSO, PR, BRASIL",-23.71026,-51.76272,"Rua Prefeito Clemente José da Silva, 86940-000, Bom Sucesso","23 42m 36.936s S, 51 45m 45.792s W",86940-000
PR,BOM SUCESSO,UNIDADE DE SAUDE DA FAMILIA EDVAR RANIERO,RUA WILLIAN RAFAEL DUARTE DE ALMEIDA,S/N,MUTIRAO,"RUA WILLIAN RAFAEL DUARTE DE ALMEIDA, MUTIRAO, BOM SUCESSO, PR, BRASIL",-23.70729,-51.76539,"Rua Emílio Domingues de Almeida, 86940-000, Bom Sucesso","23 42m 26.244s S, 51 45m 55.404s W",86940-000
PR,BOM SUCESSO DO SUL,UNIDADE CENTRAL DE SAUDE DE BOM SUCESSO DO SUL,RUA IGNACIO DRANCKA,191,CENTRO,"RUA IGNACIO DRANCKA, CENTRO, BOM SUCESSO DO SUL, PR, BRASIL",-26.07366,-52.83226,"Rua Ignácio Drancka, 85515-000, Bom Sucesso do Sul","26 4m 25.176s S, 52 49m 56.136s W",85515-000
PR,BOM SUCESSO DO SUL,UAPSF DE BOM SUCESSO DO SUL,RUA JOAO BAGGIO,210,CENTRO,"RUA JOAO BAGGIO, CENTRO, BOM SUCESSO DO SUL, PR, BRASIL",-26.07618,-52.83511,"Rua João Bagio, 85515-000, Bom Sucesso do Sul","26 4m 34.248s S, 52 50m 6.396s W",85515-000
PR,BORRAZOPOLIS,MARIA FLORENCIO PAULINO,AVENIDA BRASIL,S/N,VILA VERDEII,"AVENIDA BRASIL, VILA VERDEII, BORRAZOPOLIS, PR, BRASIL",-23.93814,-51.59126,"Avenida Brasil, Borrazópolis","23 56m 17.304s S, 51 35m 28.536s W",
PR,BORRAZOPOLIS,HORTENCIA MAGALHAES CIVIDINI,RUA JOSE TRIDA,S/N,VILA BOM JESUS,"RUA JOSE TRIDA, VILA BOM JESUS, BORRAZOPOLIS, PR, BRASIL",-23.13799,-46.46072,"Rua Padre Roque Gonçalves, 12955-000, Bom Jesus dos Perdões","23 8m 16.764s S, 46 27m 38.592s W",12955-000
PR,BORRAZOPOLIS,UNIDADE DE ATENCAO PRIMARIA SAUDE DA FAMILIA,RUA SAO PAULO,469,CENTRO,"RUA SAO PAULO, CENTRO, BORRAZOPOLIS, PR, BRASIL",-23.94166,-51.58898,"Rua São Paulo, 86925-000, Borrazópolis","23 56m 29.976s S, 51 35m 20.328s W",86925-000
PR,BRAGANEY,POSTO DE SAUDE DE LONGUINOPOLIS,AV BRASIL,S/N,LONGUINOPOLIS,"AV BRASIL, LONGUINOPOLIS, BRAGANEY, PR, BRASIL",-24.753371100000003,-53.0375457,"Avenida Brasil, Longuinópolis, Braganey, Região Geográfica Imediata de Cascavel, Região Geográfica Intermediária de Cascavel, Paraná, Região Sul, Brasil","24 45m 12.136s S, 53 2m 15.1645s W",
PR,BRAGANEY,C S DE BRAGANEY,AVENIDA BRASILIA,1082,CENTRO,"AVENIDA BRASILIA, CENTRO, BRAGANEY, PR, BRASIL",-25.29101,-54.09439,"Avenida Brasília, 85884-000, Medianeira","25 17m 27.636s S, 54 5m 39.804s W",85884-000
PR,BRAGANEY,POSTO DE SAUDE DA BRAGANTINA,RUA SAO LUIZ,S/N,BRAGANTINA,"RUA SAO LUIZ, BRAGANTINA, BRAGANEY, PR, BRASIL",-24.831798000000003,-53.1153384,"Rua São Luiz, Bragantina, Braganey, Região Geográfica Imediata de Cascavel, Região Geográfica Intermediária de Cascavel, Paraná, Região Sul, Brasil","24 49m 54.4728s S, 53 6m 55.2182s W",
PR,BRASILANDIA DO SUL,UNIDADE BASICA DE SAUDE DE ERCILANDIA,AVENIDA BRASIL,S/N,ERCILANDIA,"AVENIDA BRASIL, ERCILANDIA, BRASILANDIA DO SUL, PR, BRASIL",-24.1922482,-53.64572629999999,"Avenida Brasil, Ercilândia, Brasilândia do Sul, Região Geográfica Imediata de Umuarama, Região Metropolitana de Umuarama, Região Geográfica Intermediária de Maringá, Paraná, Região Sul, Brasil","24 11m 32.0935s S, 53 38m 44.6147s W",
PR,BRASILANDIA DO SUL,UNIDADE DE ATENCAO PRIMARIA A SAUDE DA FAMILIA,RUA CABO UMBELINO NASCIMENTO,1600,CENTRO,"RUA CABO UMBELINO NASCIMENTO, CENTRO, BRASILANDIA DO SUL, PR, BRASIL",-25.41214,-52.4093,"Rua Sgt João Nascimento Lopes, Laranjeiras do Sul","25 24m 43.704s S, 52 24m 33.48s W",
PR,BRASILANDIA DO SUL,UNIDADE BASICA DE SAUDE VALERIANO RIEDI,RUA UMBELINO NASCIMENTO,1500,CENTRO,"RUA UMBELINO NASCIMENTO, CENTRO, BRASILANDIA DO SUL, PR, BRASIL",-25.41214,-52.4093,"Rua Sgt João Nascimento Lopes, Laranjeiras do Sul","25 24m 43.704s S, 52 24m 33.48s W",
PR,CAFEARA,UNIDADE BASICA DE SAUDE DE CAFEARA,AVENIDA BRASIL,123,CENTRO,"AVENIDA BRASIL, CENTRO, CAFEARA, PR, BRASIL",-22.7802,-51.71012,"Avenida Brasil, 86640, 86650, Cafeara","22 46m 48.72s S, 51 42m 36.432s W",86640
PR,CAFELANDIA,UBS BAIRRO BENJAMIM ANTONIO MOTTER,RUA ERNESTO BASSO,58,BENJAMIM ANTONIO MOT,"RUA ERNESTO BASSO, BENJAMIM ANTONIO MOT, CAFELANDIA, PR, BRASIL",-24.61537,-53.33176,"Rua Ernesto Basso, 85415-000, Cafelândia","24 36m 55.332s S, 53 19m 54.336s W",85415-000
PR,CAFELANDIA,UNIDADE DE SAUDE OS PIONEIROS,RUA NICANOR SGANZERLA,571,PIONEIROS,"RUA NICANOR SGANZERLA, PIONEIROS, CAFELANDIA, PR, BRASIL",-24.6361098,-53.3054173,"Rua Nicanor Sganzerla, Novo Horizonte, Cafelândia, Região Geográfica Imediata de Cascavel, Região Geográfica Intermediária de Cascavel, Paraná, Região Sul, 85415-000, Brasil","24 38m 9.99528s S, 53 18m 19.5023s W",85415-000
PR,CAFELANDIA,UNIDADE DA SAUDE DA FAMILIA CENTRO NORTE,AVENIDA PRESIDENTE VARGAS,790,CENTRO,"AVENIDA PRESIDENTE VARGAS, CENTRO, CAFELANDIA, PR, BRASIL",-24.6130229,-53.322700100000006,"Avenida Presidente Vargas, Jardim Itália, Cafelândia, Região Geográfica Imediata de Cascavel, Região Geográfica Intermediária de Cascavel, Paraná, Região Sul, 85415-000, Brasil","24 36m 46.8824s S, 53 19m 21.7204s W",85415-000
PR,CAFELANDIA,UNIDADE DE SAUDE CENTRAL SANTA CRUZ,R ARMANDO ZANATTO,40,CENTRAL SANTA CRUZ,"R ARMANDO ZANATTO, CENTRAL SANTA CRUZ, CAFELANDIA, PR, BRASIL",-24.69796,-53.37842,"Rua Armando Zanatto, 85415-000, Cafelândia","24 41m 52.656s S, 53 22m 42.312s W",85415-000
PR,CAFELANDIA,C S DE CAFELANDIA,AVENIDA PRESIDENTE JUSCELINO,394,CENTRO,"AVENIDA PRESIDENTE JUSCELINO, CENTRO, CAFELANDIA, PR, BRASIL",-24.6128241,-53.3216681,"Avenida Presidente Juscelino, Jardim Itália, Cafelândia, Região Geográfica Imediata de Cascavel, Região Geográfica Intermediária de Cascavel, Paraná, Região Sul, 85415-000, Brasil","24 36m 46.1668s S, 53 19m 18.0052s W",85415-000
PR,CAFELANDIA,UBS PARQUE VERDE ALVORADA,RUA CECILIA ROECKER,134,PARQUE ALVORADA,"RUA CECILIA ROECKER, PARQUE ALVORADA, CAFELANDIA, PR, BRASIL",-24.6223288,-53.3286902,"Rua Cecília Roecker, Parque Verde, Cafelândia, Região Geográfica Imediata de Cascavel, Região Geográfica Intermediária de Cascavel, Paraná, Região Sul, 85415-000, Brasil","24 37m 20.3837s S, 53 19m 43.2847s W",85415-000
PR,CAFEZAL DO SUL,CENTRO DE SAUDE MANOEL GOMES DE SOUZA,RUA INGLATERRA,479,CENTRO,"RUA INGLATERRA, CENTRO, CAFEZAL DO SUL, PR, BRASIL",-23.90712,-53.51935,"Rua Inglaterra, 87565-000, Cafezal do Sul","23 54m 25.632s S, 53 31m 9.66s W",87565-000
PR,CAFEZAL DO SUL,CENTRO DE SAUDE DE CAFEZAL DO SUL,RUA ESPIRITO SANTO,861,CENTRO,"RUA ESPIRITO SANTO, CENTRO, CAFEZAL DO SUL, PR, BRASIL",-23.90359,-53.51621,"Rua Espírito Santo, 87565-000, Cafezal do Sul","23 54m 12.924s S, 53 30m 58.356s W",87565-000
PR,CAFEZAL DO SUL,POSTO DE SAUDE LAERCIO BOSCARIOLI,RUA MARINGA,S/N,CENTRO,"RUA MARINGA, CENTRO, CAFEZAL DO SUL, PR, BRASIL",-23.94363,-53.58683,"Rua Maringá, 87567-000, Cafezal do Sul","23 56m 37.068s S, 53 35m 12.588s W",87567-000
PR,CAFEZAL DO SUL,UNIDADE DE ATENCAO PRIMARIA,RUA FRANCA,714,CENTRO,"RUA FRANCA, CENTRO, CAFEZAL DO SUL, PR, BRASIL",-23.90659,-53.51696,"Rua França, 87565-000, Cafezal do Sul","23 54m 23.724s S, 53 31m 1.056s W",87565-000
PR,CAFEZAL DO SUL,POSTO DE SAUDE REGEANE CAMILLO,AV PRINCIPAL,S/N,JANGADA,"AV PRINCIPAL, JANGADA, CAFEZAL DO SUL, PR, BRASIL",-24.00967,-53.52763,"Rua Presidente Rodrigues Alves, 87569-000, Cafezal do Sul","24 0m 34.812s S, 53 31m 39.468s W",87569-000
PR,CALIFORNIA,POSTO DE SAUDE ELIZETE HECHT FOLLADOR,AV COPACABANA,S/N,FIGUEIRINHA,"AV COPACABANA, FIGUEIRINHA, CALIFORNIA, PR, BRASIL",-24.00982,-46.4195,"Rua Copacabana, 11701-670, Praia Grande","24 0m 35.352s S, 46 25m 10.2s W",11701-670
PR,CALIFORNIA,DR MARIO FARAH RAFKA,RUA FERNANDO MARTINS,111,RESIDENCIAL SILVINO,"RUA FERNANDO MARTINS, RESIDENCIAL SILVINO, CALIFORNIA, PR, BRASIL",-23.66718,-51.34809,"Rua Fernando Ravaneda, 86820-000, Califórnia","23 40m 1.848s S, 51 20m 53.124s W",86820-000
PR,CALIFORNIA,UAPSF CALIFORNIA,PRACA SEVERINO BELONCI,35,CENTRO,"PRACA SEVERINO BELONCI, CENTRO, CALIFORNIA, PR, BRASIL",-22.0318,-42.79109,"Praça Severino Esteves, 25886-000, Sapucaia","22 1m 54.48s S, 42 47m 27.924s W",25886-000
PR,CALIFORNIA,CENTRO DE SAUDE MUNICIPAL,RUA MIRIAN MARCAL,442,CENTRO,"RUA MIRIAN MARCAL, CENTRO, CALIFORNIA, PR, BRASIL",-23.66484,-51.35851,"Rua Mirian Marçal, 86820-000, Califórnia","23 39m 53.424s S, 51 21m 30.636s W",86820-000
PR,CAMBARA,UNIDADE BASICA DE SAUDE MORAR MELHOR,RUA ANTONIO FRANCISQUINI,107,MORAR MELHOR,"RUA ANTONIO FRANCISQUINI, MORAR MELHOR, CAMBARA, PR, BRASIL",-23.02993,-50.08746,"Rua Antônio Francisquini, 86390-000, Cambará","23 1m 47.748s S, 50 5m 14.856s W",86390-000
PR,CAMBARA,UNIDADE BASICA DE SAUDE VILA SANTANA,RUA NOSSA SENHORA DO ROCIO,1059,VILA SANTANA,"RUA NOSSA SENHORA DO ROCIO, VILA SANTANA, CAMBARA, PR, BRASIL",-23.04017,-50.08063,"Rua Nossa Senhora do Rócio, 86390-000, Cambará","23 2m 24.612s S, 50 4m 50.268s W",86390-000
PR,CAMBARA,POSTO DE SAUDE CENTRAL CAMBARA,TRAVESSA ELIAS DEFFUNE,22,VILA RUBIM,"TRAVESSA ELIAS DEFFUNE, VILA RUBIM, CAMBARA, PR, BRASIL",-20.32114,-40.34678,"Travessa Alziso Serafim dos Anjos & Avenida Elias Miguel, 29025, Vitória","20 19m 16.104s S, 40 20m 48.408s W",29025
PR,CAMBARA,PSF CENTRO,AVENIDA BRASIL,1327,CENTRO,"AVENIDA BRASIL, CENTRO, CAMBARA, PR, BRASIL",-23.31874,-51.15513,"Rua Cambará, 86010, Londrina","23 19m 7.464s S, 51 9m 18.468s W",86010
PR,CAMBARA,UNIDADE BASICA DE SAUDE SAO JOSE,RUA SAO BENEDITO,350,CONJ SAO JOSE,"RUA SAO BENEDITO, CONJ SAO JOSE, CAMBARA, PR, BRASIL",-23.02938,-50.07242,"Rua São José, 86390-000, Cambará","23 1m 45.768s S, 50 4m 20.712s W",86390-000
PR,CAMBARA,UNIDADE UAPSF IGNEZ PANICHI HANZE,RUA GAETANO FRASCATI,185,CONJ IGNES PANICHI,"RUA GAETANO FRASCATI, CONJ IGNES PANICHI, CAMBARA, PR, BRASIL",-23.03408,-50.08394,"Rua Caetano Frascatti, 86390-000, Cambará","23 2m 2.688s S, 50 5m 2.184s W",86390-000
PR,CAMBARA,UNIDADE BASICA DE SAUDE VILA RUBIM,RUA DR GENARO RESENDE,1860,VILA RUBIM,"RUA DR GENARO RESENDE, VILA RUBIM, CAMBARA, PR, BRASIL",-23.0467,-50.06874,"Rua Doutor Genaro Resende, 86390-000, Cambará","23 2m 48.12s S, 50 4m 7.464s W",86390-000
PR,CAMBE,UNIDADE DE SAUDE DO SAO PAULO CAMBE,BERNARDINO DE CAMPOS,179,SAO PAULO,"BERNARDINO DE CAMPOS, SAO PAULO, CAMBE, PR, BRASIL",-23.294396,-51.2537303,"Avenida Bernardino de Campos, Jardim São Paulo, Cambé, Região Geográfica Imediata de Londrina, Região Geográfica Intermediária de Londrina, Paraná, Região Sul, 86181-000, Brasil","23 17m 39.8256s S, 51 15m 13.4291s W",86181-000
PR,CAMBE,UNIDADE DE SAUDE DO JD NOVO BANDEIRANTES CAMBE,RUA SADAMU ANAMI,73,NOVO BANDEIRANTES,"RUA SADAMU ANAMI, NOVO BANDEIRANTES, CAMBE, PR, BRASIL",-23.3086924,-51.2236271,"Rua Sadamu Anami, Jardim Novo Bandeirantes, Cambé, Região Geográfica Imediata de Londrina, Região Geográfica Intermediária de Londrina, Paraná, Região Sul, 86188-040, Brasil","23 18m 31.2926s S, 51 13m 25.0576s W",86188-040
PR,CAMBE,UAPSF UN ATENCAO PRIMARIA SAUDE DA FAMILIA NOVO BAND,R BENTO MUSSORUNGA,555,JD NOVO BANDEIRANTE,"R BENTO MUSSORUNGA, JD NOVO BANDEIRANTE, CAMBE, PR, BRASIL",-23.31127,-51.22364,"Rua Professor Bento Mussurunga, 86188-070, Cambé","23 18m 40.572s S, 51 13m 25.104s W",86188-070
PR,CAMBE,UNIDADE DE SAUDE VILA GUARANI CAMBE,RUA VITORIA,307,VILA GUARANI,"RUA VITORIA, VILA GUARANI, CAMBE, PR, BRASIL",-23.27294,-51.28527,"Rua Vitória, 86182-080, Cambé","23 16m 22.584s S, 51 17m 6.972s W",86182-080
PR,CAMBE,UNIDADE DE SAUDE CAMBE IV,AV ANTONIO RAMINELLI,1179,CAMBE IV,"AV ANTONIO RAMINELLI, CAMBE IV, CAMBE, PR, BRASIL",-23.27342,-51.25681,"Avenida Antônio Raminelli, Cambé","23 16m 24.312s S, 51 15m 24.516s W",
PR,CAMBE,UNIDADE DE SAUDE CAMBE II,RUA ITAMARATI,647,CAMBE II,"RUA ITAMARATI, CAMBE II, CAMBE, PR, BRASIL",-23.28503,-51.26842,"Rua Itamaraty, 86191-130, Cambé","23 17m 6.108s S, 51 16m 6.312s W",86191-130
PR,CAMBE,CENTRO DE SAUDE CAMBE,RUA PRESIDENTE KENNEDY,305,CENTRO,"RUA PRESIDENTE KENNEDY, CENTRO, CAMBE, PR, BRASIL",-23.282020000000003,-51.278622,"Rua Presidente Kennedy, Centro, Cambé, Região Geográfica Imediata de Londrina, Região Geográfica Intermediária de Londrina, Paraná, Região Sul, 86181-080, Brasil","23 16m 55.272s S, 51 16m 43.0392s W",86181-080
PR,CAMBE,UNIDADE DE SAUDE DO JD ANA ROSA CAMBE,RUA JOSE DELALIBERA,1020,ANA ROSA,"RUA JOSE DELALIBERA, ANA ROSA, CAMBE, PR, BRASIL",-23.2786,-51.24848,"Rua José Rosa de Oliveira, 86183-777, Cambé","23 16m 42.96s S, 51 14m 54.528s W",86183-777
PR,CAMBE,UNIDADE DE SAUDE DO SANTO AMARO CAMBE,RUA RIO SAO FRANCISCO,550,SANTO AMARO,"RUA RIO SAO FRANCISCO, SANTO AMARO, CAMBE, PR, BRASIL",-23.2893304,-51.24281920000001,"Rua Rio São Francisco, Jardim Santo Amaro, Cambé, Região Geográfica Imediata de Londrina, Região Geográfica Intermediária de Londrina, Paraná, Região Sul, 86186-010, Brasil","23 17m 21.5894s S, 51 14m 34.1491s W",86186-010
PR,CAMBE,UNIDADE DE SAUDE MARIA ANIDEJE,AV PARIGOT DE SOUZA,1000,MONTE CASTELO,"AV PARIGOT DE SOUZA, MONTE CASTELO, CAMBE, PR, BRASIL",-23.2988,-51.23797,"Avenida Pedro Viriato Parigot de Souza, 86186-020, Cambé","23 17m 55.68s S, 51 14m 16.692s W",86186-020
PR,CAMBE,UNIDADE DE SAUDE JD SILVINO CAMBE,RUA NILO PECANHA,318,SILVINO,"RUA NILO PECANHA, SILVINO, CAMBE, PR, BRASIL",-23.30274,-51.22251,"Rua Presidente Nilo Peçanha, 86187-310, Cambé","23 18m 9.864s S, 51 13m 21.036s W",86187-310
PR,CAMBE,UAPSF UN ATENCAO PRIMARIA SAUDE DA FAMILIA JD ANA ROSA,JOSE GOMES REDONDO,35,RES ANA ROSA,"JOSE GOMES REDONDO, RES ANA ROSA, CAMBE, PR, BRASIL",-23.26989,-51.25905,"Rua José Gomes Redondo, 86183, Cambé","23 16m 11.604s S, 51 15m 32.58s W",86183
PR,CAMBE,UNIDADE DE SAUDE JD CRISTAL CAMBE,RUA ONIX,250,JD CRISTAL,"RUA ONIX, JD CRISTAL, CAMBE, PR, BRASIL",-23.26962,-51.27516,"Rua Ônix, 86182-707, Cambé","23 16m 10.632s S, 51 16m 30.576s W",86182-707
PR,CAMBIRA,UAPSF UNIDADE DE ATENCAO PRIMARIA SAUDE DA FAMILIA,RUA DAS HORTENCIAS,255,JARDIM CATUAI II,"RUA DAS HORTENCIAS, JARDIM CATUAI II, CAMBIRA, PR, BRASIL",-22.76681,-47.33831,"Rua das Hortências, 13467-190, Americana","22 46m 0.516s S, 47 20m 17.916s W",13467-190
PR,CAMBIRA,POSTO DE SAUDE SETE DE MAIO,RUA PENAPOLIS,S/N,SETE DE MAIO,"RUA PENAPOLIS, SETE DE MAIO, CAMBIRA, PR, BRASIL",-22.85208,-51.02658,"Rua Sete, 86140-000, Primeiro de Maio","22 51m 7.488s S, 51 1m 35.688s W",86140-000
PR,CAMBIRA,CENTRO DE SAUDE DE CAMBIRA,RUA SERGIPE,165,SAO JOSE,"RUA SERGIPE, SAO JOSE, CAMBIRA, PR, BRASIL",-25.52717,-49.19402,"Rua Sergipe, 83040-120, São José dos Pinhais","25 31m 37.812s S, 49 11m 38.472s W",83040-120
PR,CAMPINA DA LAGOA,POSTO DE SAUDE SALLES DE OLIVEIRA,RUA MESSIAS EDUARDO FELIX,S/N,SALLES DE OLIVEIRA,"RUA MESSIAS EDUARDO FELIX, SALLES DE OLIVEIRA, CAMPINA DA LAGOA, PR, BRASIL",-24.718,-52.77432,"Salles de Oliveira, Campina da Lagoa","24 43m 4.8s S, 52 46m 27.552s W",
PR,CAMPINA DA LAGOA,UBS EUGENIO BARBAO,RUA IPIRANGA,S/N,JD SANTA TEREZINHA,"RUA IPIRANGA, JD SANTA TEREZINHA, CAMPINA DA LAGOA, PR, BRASIL",-24.5851,-52.80137,"Rua Santa Terezinha, 87345-000, Campina da Lagoa","24 35m 6.36s S, 52 48m 4.932s W",87345-000
PR,CAMPINA DA LAGOA,UNIDADE BASICA SONIA MATESCO,SANTOS DUMONT,0,JOAO PAULO II,"SANTOS DUMONT, JOAO PAULO II, CAMPINA DA LAGOA, PR, BRASIL",-24.60025,-52.80809,"Rua Santos Dumont, 87345-000, Campina da Lagoa","24 36m 0.9s S, 52 48m 29.124s W",87345-000
PR,CAMPINA DA LAGOA,UAPS DE CAMPINA DA LAGOA,RUA JOSE MARIA PEREIRA,883,CENTRO,"RUA JOSE MARIA PEREIRA, CENTRO, CAMPINA DA LAGOA, PR, BRASIL",-24.59208,-52.80692,"Rua José Maria Pereira, 87345-000, Campina da Lagoa","24 35m 31.488s S, 52 48m 24.912s W",87345-000
PR,CAMPINA DA LAGOA,CENTRO DE SAUDE DE CAMPINA DA LAGOA,RUA VEREADOR HOMERO FRANCO,1000,CENTRO,"RUA VEREADOR HOMERO FRANCO, CENTRO, CAMPINA DA LAGOA, PR, BRASIL",-24.59188,-52.80368,"Rua Vereador Homero Franco, 87345, Campina da Lagoa","24 35m 30.768s S, 52 48m 13.248s W",87345
PR,CAMPINA DO SIMAO,CENTRO MUNICIPAL DE SAUDE CLAUDIO JOAO SILVESTRI,AVENIDA JOAO FERREIRA NEVES,S/N,CENTRO,"AVENIDA JOAO FERREIRA NEVES, CENTRO, CAMPINA DO SIMAO, PR, BRASIL",-25.11123,-51.80725,"Avenida R. João Ferreira Neves, 85148, Campina do Simão","25 6m 40.428s S, 51 48m 26.1s W",85148
PR,CAMPINA DO SIMAO,POLICLINICA JOAO SCHELLER,AVENIDA JOAO FERREIRA NEVES,S/N,CENTRO,"AVENIDA JOAO FERREIRA NEVES, CENTRO, CAMPINA DO SIMAO, PR, BRASIL",-25.11123,-51.80725,"Avenida R. João Ferreira Neves, 85148, Campina do Simão","25 6m 40.428s S, 51 48m 26.1s W",85148
PR,CAMPINA GRANDE DO SUL,UNIDADE DE SAUDE ADELQUE BOSSARDI,MIGUEL THOMEU,674,JARDIM FLORIDA,"MIGUEL THOMEU, JARDIM FLORIDA, CAMPINA GRANDE DO SUL, PR, BRASIL",-25.3551,-49.11197,"Rua Miguel Thomeu, 83430-000, Campina Grande do Sul","25 21m 18.36s S, 49 6m 43.092s W",83430-000
PR,CAMPINA GRANDE DO SUL,UNIDADE DE SAUDE MANOEL ALVES KUSTEL,RODOVIA DO CAQUI,3166,JARDIM DIAMANTE,"RODOVIA DO CAQUI, JARDIM DIAMANTE, CAMPINA GRANDE DO SUL, PR, BRASIL",-25.3248073,-49.0785251,"Rodovia do Caqui, Jardim Araçatuba, Jardim Santa Rita de Cássia, Campina Grande do Sul, Região Geográfica Imediata de Curitiba, Região Metropolitana de Curitiba, Região Geográfica Intermediária de Curitiba, Paraná, Região Sul, 83430-000, Brasil","25 19m 29.3063s S, 49 4m 42.6904s W",83430-000
PR,CAMPINA GRANDE DO SUL,UNIDADE DE SAUDE PAIOL DE BAIXO,BR 116 KM 50,S/N,PAIOL DE BAIXO,"BR 116 KM 50, PAIOL DE BAIXO, CAMPINA GRANDE DO SUL, PR, BRASIL",-25.33667,-49.06847,"Rua Bento Rodrigues de Lima, 116, 83430-000, Campina Grande do Sul","25 20m 12.012s S, 49 4m 6.492s W",83430-000
PR,CAMPINA GRANDE DO SUL,UNIDADE DE SAUDE ROSALINA BELO DE SANTANA,ESTRADA DA CANELINHA,S/N,CANELINHA,"ESTRADA DA CANELINHA, CANELINHA, CAMPINA GRANDE DO SUL, PR, BRASIL",-25.31404,-49.07626,"Estrada da Roseira, 83430-000, Campina Grande do Sul","25 18m 50.544s S, 49 4m 34.536s W",83430-000
PR,CAMPINA GRANDE DO SUL,UNIDADE DE SAUDE PEDRO CASEMIRO RODRIGUES,BR 116 KM 38,S/N,CAPIVARI GRANDE,"BR 116 KM 38, CAPIVARI GRANDE, CAMPINA GRANDE DO SUL, PR, BRASIL",-25.30701,-49.05381,Campina Grande do Sul,"25 18m 25.236s S, 49 3m 13.716s W",
PR,CAMPINA GRANDE DO SUL,UNIDADE DE SAUDE ZACARIAS SANTANA DO NASCIMENTO,BR 116 KM 30,S/N,RIBEIRAO GRANDE,"BR 116 KM 30, RIBEIRAO GRANDE, CAMPINA GRANDE DO SUL, PR, BRASIL",-25.35467,-49.07622,"Rua Brasílio Ribeiro Santos, 116, 83430-000, Campina Grande do Sul","25 21m 16.812s S, 49 4m 34.392s W",83430-000
PR,CAMPINA GRANDE DO SUL,UNIDADE DE SAUDE JOAO HAMILTON BELO,JULIO GUIDOLIM,72,JARDIM SANTA ROSA,"JULIO GUIDOLIM, JARDIM SANTA ROSA, CAMPINA GRANDE DO SUL, PR, BRASIL",-24.40408,-54.04767,"Rua Rio Grande do Sul, 85930-000, Nova Santa Rosa","24 24m 14.688s S, 54 2m 51.612s W",85930-000
PR,CAMPINA GRANDE DO SUL,UNIDADE DE SAUDE PROF ELVIRA TAVARES DE SANTANA DE CAMARGO,RUA PRINCIPAL,S/N,JAGUATIRICA,"RUA PRINCIPAL, JAGUATIRICA, CAMPINA GRANDE DO SUL, PR, BRASIL",-25.30701,-49.05381,Campina Grande do Sul,"25 18m 25.236s S, 49 3m 13.716s W",
PR,CAMPINA GRANDE DO SUL,UNIDADE DE SAUDE CONCEICAO MARIA DE ANDRADE,JOSE ROMAGNANI,127,JARDIM PAULISTA,"JOSE ROMAGNANI, JARDIM PAULISTA, CAMPINA GRANDE DO SUL, PR, BRASIL",-25.36349,-49.10772,"Rua José Romagnani, 83430-000, Campina Grande do Sul","25 21m 48.564s S, 49 6m 27.792s W",83430-000
PR,CAMPINA GRANDE DO SUL,UNIDADE DE SAUDE DACYR SIQUEIRA TREVISAN,DR JOAO CANDIDO,812,JARDIM DA CAMPINA,"DR JOAO CANDIDO, JARDIM DA CAMPINA, CAMPINA GRANDE DO SUL, PR, BRASIL",-25.306,-49.05399,"Rua Doutor João Cândido, 83430-000, Campina Grande do Sul","25 18m 21.6s S, 49 3m 14.364s W",83430-000
PR,CAMPINA GRANDE DO SUL,UNIDADE DE SAUDE HENRIQUE FERREIRA,TRAVESSA DO LAZER,91,JARDIM JACOB CECCON,"TRAVESSA DO LAZER, JARDIM JACOB CECCON, CAMPINA GRANDE DO SUL, PR, BRASIL",-25.34535,-49.07594,"Travessa do Lazer, 83430-000, Campina Grande do Sul","25 20m 43.26s S, 49 4m 33.384s W",83430-000
PR,CAMPINA GRANDE DO SUL,UNIDADE DE SAUDE JORGE RIBEIRO DE CAMARGO,TAQUARI,S/N,TAQUARI,"TAQUARI, TAQUARI, CAMPINA GRANDE DO SUL, PR, BRASIL",-25.30701,-49.05381,Campina Grande do Sul,"25 18m 25.236s S, 49 3m 13.716s W",
PR,CAMPO BONITO,UAPSF AYRON LEONEL FOSCHERA,RUA RUI BARBOSA,71,CENTRO,"RUA RUI BARBOSA, CENTRO, CAMPO BONITO, PR, BRASIL",-25.03122,-52.99076,"Rua Rui Barbosa, 85450-000, Campo Bonito","25 1m 52.392s S, 52 59m 26.736s W",85450-000
PR,CAMPO BONITO,POSTO DE SAUDE DE SERTAOZINHO,SERTAOZINHO,S/N,LOC DE SERTAOZINHO,"SERTAOZINHO, LOC DE SERTAOZINHO, CAMPO BONITO, PR, BRASIL",-25.0331,-52.99468,Campo Bonito,"25 1m 59.16s S, 52 59m 40.848s W",
PR,CAMPO BONITO,C S DE CAMPO BONITO,RUA RUI BARBOSA,71,CENTRO,"RUA RUI BARBOSA, CENTRO, CAMPO BONITO, PR, BRASIL",-25.03122,-52.99076,"Rua Rui Barbosa, 85450-000, Campo Bonito","25 1m 52.392s S, 52 59m 26.736s W",85450-000
PR,CAMPO DO TENENTE,UNIDADE BASICA DE SAUDE SAO LUIZ,RUA MARIA CLARA BRANDAO TESSEROLLI,89,CENTRO,"RUA MARIA CLARA BRANDAO TESSEROLLI, CENTRO, CAMPO DO TENENTE, PR, BRASIL",-25.97668,-49.68278,"Rua Maria Clara Brandão Tesseroli, 83870-000, Campo do Tenente","25 58m 36.048s S, 49 40m 58.008s W",83870-000
PR,CAMPO DO TENENTE,ESF ELOI PASCHOAL BODANESI,ESTRADA LAGEADO,S/N,RURAL,"ESTRADA LAGEADO, RURAL, CAMPO DO TENENTE, PR, BRASIL",-25.35591,-49.17267,"Rua Campo do Tenente, 83410, 83418, Colombo","25 21m 21.276s S, 49 10m 21.612s W",83410
PR,CAMPO DO TENENTE,P S DEAMIRO ALVES DA SILVA,BR 116 KM 177,S/N,RIO VERMELHO,"BR 116 KM 177, RIO VERMELHO, CAMPO DO TENENTE, PR, BRASIL",-25.96457,-49.65541,"Rodovia Régis Bittencourt, 83870-000, Campo do Tenente","25 57m 52.452s S, 49 39m 19.476s W",83870-000
PR,CAMPO DO TENENTE,UNIDADE DE SAUDE DIVINO ESPIRITO SANTO,ELVIO LUIZ BONAMIGO,S/N,LOTEAMENTO DO DIVINO,"ELVIO LUIZ BONAMIGO, LOTEAMENTO DO DIVINO, CAMPO DO TENENTE, PR, BRASIL",-25.9819,-49.68365,Campo do Tenente,"25 58m 54.84s S, 49 41m 1.14s W",
PR,CAMPO DO TENENTE,WALDOMIRO MACHADO DE SOUZA,RUA MARIA CLARA BRANDAO TESSEROLLI,89,CENTRO,"RUA MARIA CLARA BRANDAO TESSEROLLI, CENTRO, CAMPO DO TENENTE, PR, BRASIL",-25.97668,-49.68278,"Rua Maria Clara Brandão Tesseroli, 83870-000, Campo do Tenente","25 58m 36.048s S, 49 40m 58.008s W",83870-000
PR,CAMPO LARGO,UNIDADE DE SAUDE TRES CORREGOS,TRES CORREGOS,S/N,TRES CORREGOS,"TRES CORREGOS, TRES CORREGOS, CAMPO LARGO, PR, BRASIL",-25.22006,-49.63236,"Três Córregos, Campo Largo","25 13m 12.216s S, 49 37m 56.496s W",
PR,CAMPO LARGO,UNIDADE DE SAUDE BOTIATUVA,MARIA IGNES SEGURO,S/N,BOTIATUVA,"MARIA IGNES SEGURO, BOTIATUVA, CAMPO LARGO, PR, BRASIL",-23.68302,-46.56853,"Praça Maria Tudor, 09891-425, São Bernardo do Campo","23 40m 58.872s S, 46 34m 6.708s W",09891-425
PR,CAMPO LARGO,UNIDADE DE SAUDE SANTA CRUZ,STA CRUZ,2,TRES CORREGOS,"STA CRUZ, TRES CORREGOS, CAMPO LARGO, PR, BRASIL",-25.22006,-49.63236,"Três Córregos, Campo Largo","25 13m 12.216s S, 49 37m 56.496s W",
PR,CAMPO LARGO,CENTRO DE SAUDE,FRANCISCO XAVIER DE ALMEIDA GARRET,2400,CENTRO,"FRANCISCO XAVIER DE ALMEIDA GARRET, CENTRO, CAMPO LARGO, PR, BRASIL",-25.46679,-49.52851,"Rua Francisco Xavier de Almeida Garret, 83601-230, Campo Largo","25 28m 0.444s S, 49 31m 42.636s W",83601-230
PR,CAMPO LARGO,UNIDADE DE SAUDE FAZENDINHA,ESTRADA DE BATEIAS,S/N,FAZENDINHA,"ESTRADA DE BATEIAS, FAZENDINHA, CAMPO LARGO, PR, BRASIL",-25.42271,-49.50336,"Estrada da Fazendinha & Estrada de Bateias, 83609, Campo Largo","25 25m 21.756s S, 49 30m 12.096s W",83609
PR,CAMPO LARGO,UNIDADE DE SAUDE ITABOA,RUA JOSE FEDALTO,S/N,ITABOA,"RUA JOSE FEDALTO, ITABOA, CAMPO LARGO, PR, BRASIL",-25.45401,-49.56517,"Rua José Fedalto, 83605-210, Campo Largo","25 27m 14.436s S, 49 33m 54.612s W",83605-210
PR,CAMPO LARGO,UNIDADE DE SAUDE JARDIM RIVABEM,RUA MEDIANEIRA,36,RIVABEM,"RUA MEDIANEIRA, RIVABEM, CAMPO LARGO, PR, BRASIL",-25.44863,-49.55529,"Rua Medianeira & Rua Luiz Rivabem, 83605, Campo Largo","25 26m 55.068s S, 49 33m 19.044s W",83605
PR,CAMPO LARGO,UNIDADE DE SAUDE ITAMBEZINHO,CASIMIRO KAARMAE,S/N,ITAMBEZINHO,"CASIMIRO KAARMAE, ITAMBEZINHO, CAMPO LARGO, PR, BRASIL",-25.47626,-49.55137,"Rua Casemiro de Abreu, 83602-665, Campo Largo","25 28m 34.536s S, 49 33m 4.932s W",83602-665
PR,CAMPO LARGO,UNIDADE DE SAUDE JARDIM RONDINHA,ESTRADA DA SEREIA,25,RONDINHA,"ESTRADA DA SEREIA, RONDINHA, CAMPO LARGO, PR, BRASIL",-25.48732,-49.55674,"Estrada da Ratada, 83602, 83604, 83609, Campo Largo","25 29m 14.352s S, 49 33m 24.264s W",83602
PR,CAMPO LARGO,UNIDADE DE SAUDE SAO PEDRO,ESTRADA PRINCIPAL DE SAO PEDRO,S/N,SAO PEDRO,"ESTRADA PRINCIPAL DE SAO PEDRO, SAO PEDRO, CAMPO LARGO, PR, BRASIL",-23.15995,-45.90857,"Praça Pedro R. Goody, 12212-780, São José dos Campos","23 9m 35.82s S, 45 54m 30.852s W",12212-780
PR,CAMPO LARGO,UNIDADE DE SAUDE BATEIAS,JOIL ANTONIO BASSO,S/N,BATEIAS,"JOIL ANTONIO BASSO, BATEIAS, CAMPO LARGO, PR, BRASIL",-25.3614278,-49.51082279999999,"Rua Joil Antônio Basso, Bateias, Campo Largo, Região Geográfica Imediata de Curitiba, Região Metropolitana de Curitiba, Região Geográfica Intermediária de Curitiba, Paraná, Região Sul, Brasil","25 21m 41.1401s S, 49 30m 38.9621s W",
PR,CAMPO LARGO,UNIDADE DE SAUDE FERRARIA,IZIDIO SANTO CRUZARA,375,FERRARIA,"IZIDIO SANTO CRUZARA, FERRARIA, CAMPO LARGO, PR, BRASIL",-25.459953,-49.3969372,"Rua Izidio Santo Cruzara, Ferraria, Campo Largo, Região Geográfica Imediata de Curitiba, Região Metropolitana de Curitiba, Região Geográfica Intermediária de Curitiba, Paraná, Região Sul, 83609-800, Brasil","25 27m 35.8308s S, 49 23m 48.9739s W",83609-800
PR,CAMPO LARGO,UNIDADE DE SAUDE SAO SILVESTRE,ESTRADA PRINCIPAL DO PALMITAL,S/N,SAO SILVESTRE,"ESTRADA PRINCIPAL DO PALMITAL, SAO SILVESTRE, CAMPO LARGO, PR, BRASIL",-23.73499,-46.53814,"Praça Duarte da Costa, 09791-010, São Bernardo do Campo","23 44m 5.964s S, 46 32m 17.304s W",09791-010
PR,CAMPO LARGO,UNIDADE DE SAUDE VILA GLORIA,RUA BELO HORIZONTE,S/N,VILA GLORIA,"RUA BELO HORIZONTE, VILA GLORIA, CAMPO LARGO, PR, BRASIL",-19.86588,-43.92416,"Praça Associação Atlética Popular & Rua do Campo, 31970, Belo Horizonte","19 51m 57.168s S, 43 55m 26.976s W",31970
PR,CAMPO LARGO,UNIDADE DE SAUDE AGUAS CLARAS,RUA ALCEBIADES AFFONSO GUIMARAES,184,AGUAS CLARAS,"RUA ALCEBIADES AFFONSO GUIMARAES, AGUAS CLARAS, CAMPO LARGO, PR, BRASIL",-25.47212,-49.54232,"Rua Alcebíades Afonso Guimarães, 83602-210, Campo Largo","25 28m 19.632s S, 49 32m 32.352s W",83602-210
PR,CAMPO LARGO,UNIDADE DE SAUDE CARATUVA,RUA MATO GROSSO,S/N,CARATUVA,"RUA MATO GROSSO, CARATUVA, CAMPO LARGO, PR, BRASIL",-25.45329,-49.42347,"Rua Mato Grosso, Campo Largo","25 27m 11.844s S, 49 25m 24.492s W",
