UF,MUNICIPIO,ESTABELECIMENTO,LOGRADOURO,NUMERO,BAIRRO,ENDERECO_COMPLETO,latitude,longitude,address,point,cep
RO,ALTA FLORESTA D'OESTE,PS GEASA ALTA FLORESTA DO OESTE,LINHA 47 5 COM LINHA 126,S/N,ZONA RURAL,"LINHA 47 5 COM LINHA 126, ZONA RURAL, ALTA FLORESTA D'OESTE, RO, BRASIL",-11.50742,-62.46049,"Linha 29, 47, 76930-000, Alvorada d'Oeste","11 30m 26.712s S, 62 27m 37.764s W",76930-000
RO,ALTA FLORESTA D'OESTE,CENTRO DE SAUDE JORGE TEIXEIRA ALTA FLORESTA DO OESTE,AV NILO PECANHA,3409,REDONDO,"AV NILO PECANHA, REDONDO, ALTA FLORESTA D'OESTE, RO, BRASIL",-11.93301,-62.00589,"Avenida Nilo Peçanha, 76954-000, Alta Floresta d'Oeste","11 55m 58.836s S, 62 0m 21.204s W",76954-000
RO,ALTA FLORESTA D'OESTE,PS ROLIM DE MOURA DO GUAPORE ALTA FLORESTA DO OESTE,ROLIM DE MOURA DO GUAPORE,S/N,ZONA RURAL,"ROLIM DE MOURA DO GUAPORE, ZONA RURAL, ALTA FLORESTA D'OESTE, RO, BRASIL",-11.92908,-61.99542,Alta Floresta d'Oeste,"11 55m 44.688s S, 61 59m 43.512s W",
RO,ALTA FLORESTA D'OESTE,UNIDADE BASICA DE SAUDE DE FILADELFIA,VILA FILADELFIA,S/N,ZONA RURAL,"VILA FILADELFIA, ZONA RURAL, ALTA FLORESTA D'OESTE, RO, BRASIL",-11.92908,-61.99542,Alta Floresta d'Oeste,"11 55m 44.688s S, 61 59m 43.512s W",
RO,ALTA FLORESTA D'OESTE,UNIDADE BASICA DE SAUDE DO MARCAO,VILA MARCAO,4850,ZONA RURAL,"VILA MARCAO, ZONA RURAL, ALTA FLORESTA D'OESTE, RO, BRASIL",-11.92908,-61.99542,Alta Floresta d'Oeste,"11 55m 44.688s S, 61 59m 43.512s W",
RO,ALTA FLORESTA D'OESTE,CEMAS CENTRO MULTIPLO DE ATENCAO A SAUDE,AV RIO DE JANEIRO,S/N,CENTRO,"AV RIO DE JANEIRO, CENTRO, ALTA FLORESTA D'OESTE, RO, BRASIL",-11.93083,-61.9937,"Avenida Rio de Janeiro & Avenida Rondônia, 76954, Alta Floresta d'Oeste","11 55m 50.988s S, 61 59m 37.32s W",76954
RO,ALTA FLORESTA D'OESTE,CADEIA PUBLICA DE ALTA FLORESTA,RUA AMAPA,S/N,SANTA FELICIDADE,"RUA AMAPA, SANTA FELICIDADE, ALTA FLORESTA D'OESTE, RO, BRASIL",-11.92501,-61.99209,"Rua Santa Catarina & Avenida Amapá, 76954, Alta Floresta d'Oeste","11 55m 30.036s S, 61 59m 31.524s W",76954
RO,ALTA FLORESTA D'OESTE,CENTRO DE SAUDE DE IZIDOLANDIA,IZIDOLANDIA,S/N,ZONA RURAL,"IZIDOLANDIA, ZONA RURAL, ALTA FLORESTA D'OESTE, RO, BRASIL",-11.92908,-61.99542,Alta Floresta d'Oeste,"11 55m 44.688s S, 61 59m 43.512s W",
RO,ALTA FLORESTA D'OESTE,UNIDADE DE SAUDE EDMILSON LIMA DA SILVA,AV AMAPA,4915,SANTA FELICIDADE,"AV AMAPA, SANTA FELICIDADE, ALTA FLORESTA D'OESTE, RO, BRASIL",-11.92497,-61.98971,"Avenida Amapá, 76954-000, Alta Floresta d'Oeste","11 55m 29.892s S, 61 59m 22.956s W",76954-000
RO,ALTA FLORESTA D'OESTE,CENTRO DE SAUDE LEONIDIO V DE LIMA ALTA FLORESTA DO OESTE,AVENIDA BRASILIA,2870,PRINCESA IZABEL,"AVENIDA BRASILIA, PRINCESA IZABEL, ALTA FLORESTA D'OESTE, RO, BRASIL",-11.92199,-62.00271,"Avenida Brasília, Alta Floresta d'Oeste","11 55m 19.164s S, 62 0m 9.756s W",
RO,ALTO ALEGRE DOS PARECIS,UNIDADE BASICA DE SAUDE VISTA ALEGRE,AVENIDA PRESIDENTE PRUDENTE,S/N,VISTA ALEGRE,"AVENIDA PRESIDENTE PRUDENTE, VISTA ALEGRE, ALTO ALEGRE DOS PARECIS, RO, BRASIL",-12.13444,-61.85087,"Avenida Presidente Prudente & Rua Bela Vista, 76952, Alto Alegre dos Parecis","12 8m 3.984s S, 61 51m 3.132s W",76952
RO,ALTO ALEGRE DOS PARECIS,UNIDADE BASICA DE SAUDE JARDIM AMERICA,RUA AFONSO PENA,3791,JARDIM AMERICA,"RUA AFONSO PENA, JARDIM AMERICA, ALTO ALEGRE DOS PARECIS, RO, BRASIL",-12.13371,-61.85543,"Avenida Afonso Pena, 76952-000, Alto Alegre dos Parecis","12 8m 1.356s S, 61 51m 19.548s W",76952-000
RO,ALTO ALEGRE DOS PARECIS,UNIDADE BASICA DE SAUDE FLOR DA SERRA,LINHA P 36 KM 110,S/N,ZONA RURAL,"LINHA P 36 KM 110, ZONA RURAL, ALTO ALEGRE DOS PARECIS, RO, BRASIL",-12.12983,-61.8636,"Avenida Presidente Médici, 36, 76952-000, Alto Alegre dos Parecis","12 7m 47.388s S, 61 51m 48.96s W",76952-000
RO,ALTO ALEGRE DOS PARECIS,UNIDADE BASICA DE SAUDE JARDIM DAS PALMEIRAS,AVENIDA RONDONIA,S/N,JARDIM DAS PALMEIRAS,"AVENIDA RONDONIA, JARDIM DAS PALMEIRAS, ALTO ALEGRE DOS PARECIS, RO, BRASIL",-12.12238,-61.85549,"Avenida Rondônia, 76952-000, Alto Alegre dos Parecis","12 7m 20.568s S, 61 51m 19.764s W",76952-000
RO,ALTO ALEGRE DOS PARECIS,UNIDADE BASICA DE SAUDE LH P 44,LH P 44 KM 01,S/N,RURAL,"LH P 44 KM 01, RURAL, ALTO ALEGRE DOS PARECIS, RO, BRASIL",-12.12972,-61.85655,"Avenida Getúlio Vargas, 76952-000, Alto Alegre dos Parecis","12 7m 46.992s S, 61 51m 23.58s W",76952-000
RO,ALTO ALEGRE DOS PARECIS,UNIDADE BASICA DE SAUDE VILA BOSCO,LH P 08 C 115,S/N,DISTRITO,"LH P 08 C 115, DISTRITO, ALTO ALEGRE DOS PARECIS, RO, BRASIL",-12.12972,-61.85655,"Avenida Getúlio Vargas, 76952-000, Alto Alegre dos Parecis","12 7m 46.992s S, 61 51m 23.58s W",76952-000
RO,ALTO PARAISO,CENTRO DE SAUDE LHC 80 E 75 ALTO PARAISO,RUA CANDEIAS,3242,SETOR 01,"RUA CANDEIAS, SETOR 01, ALTO PARAISO, RO, BRASIL",-9.7133,-63.31572,"Rua 01, 76862-000, Alto Paraíso","9 42m 47.88s S, 63 18m 56.592s W",76862-000
RO,ALTO PARAISO,CENTRO DE SAUDE LHC 100 E 95 TB 20,LINHA 100 TB20,S/N,ZONA RURAL,"LINHA 100 TB20, ZONA RURAL, ALTO PARAISO, RO, BRASIL",-9.71512,-63.32032,"Avenida Brasil, 100, 76862-000, Alto Paraíso","9 42m 54.432s S, 63 19m 13.152s W",76862-000
RO,ALTO PARAISO,CENTRO DE SAUDE ZONA URBANA II,AVENIDA JORGE TEIXEIRA,3126,SETOR 01,"AVENIDA JORGE TEIXEIRA, SETOR 01, ALTO PARAISO, RO, BRASIL",-9.716,-63.31876,"Avenida Jorge Teixeira, 76862, Alto Paraíso","9 42m 57.6s S, 63 19m 7.536s W",76862
RO,ALTO PARAISO,PSF CENTRO DE SAUDE ALTO ALEGRE,LINHA C 85 TB 0,S/N,ZONA RURAL,"LINHA C 85 TB 0, ZONA RURAL, ALTO PARAISO, RO, BRASIL",,,,,
RO,ALTO PARAISO,CENTRO DE SAUDE LHC 105 TB 40,LHC 105 TB 40,40,ZONA RURAL,"LHC 105 TB 40, ZONA RURAL, ALTO PARAISO, RO, BRASIL",-9.94142,-63.05737,"Estrada TB-40, 105, 76877, Ariquemes","9 56m 29.112s S, 63 3m 26.532s W",76877
RO,ALTO PARAISO,CENTRO DE SAUDE ZONA URBANA,AVENIDA JORGE TEIXEIRA,3126,CENTRO,"AVENIDA JORGE TEIXEIRA, CENTRO, ALTO PARAISO, RO, BRASIL",-9.716,-63.31876,"Avenida Jorge Teixeira, 76862, Alto Paraíso","9 42m 57.6s S, 63 19m 7.536s W",76862
RO,ALVORADA D'OESTE,UNIDADE BASICA DE SAUDE GERALDO DIAS FRANCA,AVENIDA ALTO ALEGRE,S/N,ALTO ALEGRE,"AVENIDA ALTO ALEGRE, ALTO ALEGRE, ALVORADA D'OESTE, RO, BRASIL",-10.19839,-63.83446,"Rua Alto Alegre do Parecis, 76880-000, Buritis","10 11m 54.204s S, 63 50m 4.056s W",76880-000
RO,ALVORADA D'OESTE,CENTRO DE SAUDE TANCREDO ALMEIDA NEVES ALVORADA DO OESTE,RUA JOAO FERREIRA MARTINS,S/N,CENTRO,"RUA JOAO FERREIRA MARTINS, CENTRO, ALVORADA D'OESTE, RO, BRASIL",-11.35365,-62.2915,"Rua João Paulo II, Alvorada d'Oeste","11 21m 13.14s S, 62 17m 29.4s W",
RO,ALVORADA D'OESTE,UNIDADE MISTA ALVORADA DO OESTE,AVENIDA CARLOS GOMES,4695,CENTRO,"AVENIDA CARLOS GOMES, CENTRO, ALVORADA D'OESTE, RO, BRASIL",-11.34406,-62.28392,"Rua Carlos Gomes, Alvorada d'Oeste","11 20m 38.616s S, 62 17m 2.112s W",
RO,ALVORADA D'OESTE,UNIDADE BASICA DE SAUDE POLIANE DA SILVA BARBOZA,LINHA 17,17,ZONA RURAL,"LINHA 17, ZONA RURAL, ALVORADA D'OESTE, RO, BRASIL",-11.50714,-62.46048,"Linha 29, 17, 76930-000, Alvorada d'Oeste","11 30m 25.704s S, 62 27m 37.728s W",76930-000
RO,ALVORADA D'OESTE,UNIDADE BASICA DE SAUDE MARIA LUCIA RODRIGUES,AV MARECHAL DEODORO,4857,CENTRO,"AV MARECHAL DEODORO, CENTRO, ALVORADA D'OESTE, RO, BRASIL",-11.33249,-62.27261,"Avenida Marechal Deodoro, 76930-000, Alvorada d'Oeste","11 19m 56.964s S, 62 16m 21.396s W",76930-000
RO,ALVORADA D'OESTE,CENTRO DE SAUDE SAO MARCOS ALVORADA DO OESTE,AV 5 DE SETEMBRO,4690,CENTRO,"AV 5 DE SETEMBRO, CENTRO, ALVORADA D'OESTE, RO, BRASIL",-11.35125,-62.28454,"Avenida 5 de Setembro, 76930-000, Alvorada d'Oeste","11 21m 4.5s S, 62 17m 4.344s W",76930-000
RO,ALVORADA D'OESTE,CENTRO DE SAUDE MONTANO P DI BENEDETTO ALVORADA DO OESTE,DITRITO DE TERRA BOA,S/N,ZONA RURAL,"DITRITO DE TERRA BOA, ZONA RURAL, ALVORADA D'OESTE, RO, BRASIL",-11.00564,-60.84596,"Boa Vista de Pacarana, Espigão d'Oeste","11 0m 20.304s S, 60 50m 45.456s W",
RO,ARIQUEMES,CENTRO DE SAUDE MARECHAL RONDON ARIQUEMES,RUA ALBINE HENRIQUE,S/N,MARECHAL RONDON,"RUA ALBINE HENRIQUE, MARECHAL RONDON, ARIQUEMES, RO, BRASIL",-9.92945,-63.05701,"Rua Albino Henrique, 76877, Ariquemes","9 55m 46.02s S, 63 3m 25.236s W",76877
RO,ARIQUEMES,ESTRATEGIA E SAUDE DA FAMILIA RURAL,AV TANCREDO NEVES,1586,INSTITUCIONAL,"AV TANCREDO NEVES, INSTITUCIONAL, ARIQUEMES, RO, BRASIL",-9.90482,-63.03458,"Avenida Tancredo Neves, Ariquemes","9 54m 17.352s S, 63 2m 4.488s W",
RO,ARIQUEMES,CENTRO DE SAUDE SETOR 10 ARIQUEMES,RUA MEXICO,1001,SETOR 10,"RUA MEXICO, SETOR 10, ARIQUEMES, RO, BRASIL",-9.93337,-63.01577,"Rua México, 10, 76876, Ariquemes","9 56m 0.132s S, 63 0m 56.772s W",76876
RO,ARIQUEMES,CENTRO DE SAUDE JARDIM ALVORADA,RUA LISBOA,S/N,JARDIM ALVORADA,"RUA LISBOA, JARDIM ALVORADA, ARIQUEMES, RO, BRASIL",-10.72792,-62.24855,"Rua Lisboa, 76920-000, Ouro Preto do Oeste","10 43m 40.512s S, 62 14m 54.78s W",76920-000
RO,ARIQUEMES,CENTRO DE SAUDE SETOR 09 ARIQUEMES,RUA PARANAVAI,4726,SETOR 9,"RUA PARANAVAI, SETOR 9, ARIQUEMES, RO, BRASIL",-9.93245,-63.03249,"Rua Paranavaí, 76876, Ariquemes","9 55m 56.82s S, 63 1m 56.964s W",76876
RO,ARIQUEMES,CENTRO DE SAUDE SETOR 05 ARIQUEMES,AV JARU,2587,SETOR 05,"AV JARU, SETOR 05, ARIQUEMES, RO, BRASIL",-9.90399,-63.03602,"Avenida Jaru, Ariquemes","9 54m 14.364s S, 63 2m 9.672s W",
RO,ARIQUEMES,CENTRO DE SAUDE DO GARIMPO BOM FUTURO,BR 421 LINHA C 75,99998,ZONA RURAL,"BR 421 LINHA C 75, ZONA RURAL, ARIQUEMES, RO, BRASIL",-10.4201,-65.32556,"Avenida Linha C, 421, 76857-000, Nova Mamoré","10 25m 12.36s S, 65 19m 32.016s W",76857-000
RO,ARIQUEMES,CENTRO DE SAUDE SETOR 02 ARIQUEMES,RUA CANARIO,1246,SETOR 02,"RUA CANARIO, SETOR 02, ARIQUEMES, RO, BRASIL",-9.43179,-61.98434,"Rua Canário, 76868-000, Machadinho d'Oeste","9 25m 54.444s S, 61 59m 3.624s W",76868-000
RO,ARIQUEMES,CENTRO DE SAUDE 25 DE DEZEMBRO,AVENIDA CANAA,5420,PQ DAS GEMAS,"AVENIDA CANAA, PQ DAS GEMAS, ARIQUEMES, RO, BRASIL",-9.91309,-63.01582,"Rua das Turmalinas & Avenida Canaã, 76875, Ariquemes","9 54m 47.124s S, 63 0m 56.952s W",76875
RO,ARIQUEMES,CENTRO DE SAUDE MUTIRAO ARIQUEMES,RUA FLORIANO PEIXOTO,885,MONTE CRISTO,"RUA FLORIANO PEIXOTO, MONTE CRISTO, ARIQUEMES, RO, BRASIL",-9.91271,-63.06225,"Rua Floriano Peixoto, 76877-165, Ariquemes","9 54m 45.756s S, 63 3m 44.1s W",76877-165
RO,ARIQUEMES,CENTRO DE SAUDE SETOR 06 ARIQUEMES,AVENIDA JARU,4747,SETOR 06,"AVENIDA JARU, SETOR 06, ARIQUEMES, RO, BRASIL",-9.90399,-63.03602,"Avenida Jaru, Ariquemes","9 54m 14.364s S, 63 2m 9.672s W",
RO,BURITIS,UNIDADE DE PSF NOVA PORTO VELHO BURITIS,RUA PADRE FIOVO CAMAINHONE ESQ GUANABARA,S/N,SETOR 08,"RUA PADRE FIOVO CAMAINHONE ESQ GUANABARA, SETOR 08, BURITIS, RO, BRASIL",-10.22274,-63.83091,"Rua Padre Fiovo Camaione, 76880-000, Buritis","10 13m 21.864s S, 63 49m 51.276s W",76880-000
RO,BURITIS,UNIDADE BASICA DE SAUDE SETOR 04,RUA PARECIS,S/N,SETOR 04,"RUA PARECIS, SETOR 04, BURITIS, RO, BRASIL",-10.19432,-63.83056,"Rua Parecis, 76880-000, Buritis","10 11m 39.552s S, 63 49m 50.016s W",76880-000
RO,BURITIS,CENTRO DE SAUDE SAO GABRIEL,RUA HELENITA FERREIRA DE SOUZA,1948,SETOR 01,"RUA HELENITA FERREIRA DE SOUZA, SETOR 01, BURITIS, RO, BRASIL",-10.21135,-63.83234,"Rua Helenite Ferreira de Souza, Buritis","10 12m 40.86s S, 63 49m 56.424s W",
RO,BURITIS,CENTRO DE SAUDE DE BURITIS BURITIS,RUA IBIARA ESQ COM AVENIDA PORTO VELHO,1534,SETOR 03,"RUA IBIARA ESQ COM AVENIDA PORTO VELHO, SETOR 03, BURITIS, RO, BRASIL",-10.20832,-63.82771,"Rua Ibiara & Avenida Porto Velho, 76880, Buritis","10 12m 29.952s S, 63 49m 39.756s W",76880
RO,CABIXI,CENTRO DE SAUDE TIRADENTES,LINHA 09 KM 16 RUMO ESCONDIDO 2 EIXO,S/N,ZONA RURAL,"LINHA 09 KM 16 RUMO ESCONDIDO 2 EIXO, ZONA RURAL, CABIXI, RO, BRASIL",,,,,
RO,CABIXI,UNIDADE MISTA CABIXI,RUA CARIJOS,3338,CENTRO,"RUA CARIJOS, CENTRO, CABIXI, RO, BRASIL",-13.49828,-60.54507,"Rua Carijós, 76994-000, Cabixi","13 29m 53.808s S, 60 32m 42.252s W",76994-000
RO,CABIXI,CENTRO DE SAUDE SAO FRANCISCO,AV TUPINAMBAS,S/N,CENTRO,"AV TUPINAMBAS, CENTRO, CABIXI, RO, BRASIL",-13.49484,-60.54447,"Avenida Tupinambás, 76994-000, Cabixi","13 29m 41.424s S, 60 32m 40.092s W",76994-000
RO,CABIXI,CENTRO DE SAUDE SAMARITANO,LINHA 8 KM 14 R COLORADO,S/N,ZONA RURAL,"LINHA 8 KM 14 R COLORADO, ZONA RURAL, CABIXI, RO, BRASIL",-9.90347,-63.04457,"Rua Colorado do Oeste, 8, 76870, Ariquemes","9 54m 12.492s S, 63 2m 40.452s W",76870
RO,CACAULANDIA,EQUIPE DE PSF DA ZONA URBANA,RUA JOAO BOAVA,1474,SETOR 01,"RUA JOAO BOAVA, SETOR 01, CACAULANDIA, RO, BRASIL",-10.34296,-62.90079,"Rua João Boava, 76889-000, Cacaulândia","10 20m 34.656s S, 62 54m 2.844s W",76889-000
RO,CACAULANDIA,PS LINHA C 25 TB 40 CACAULANDIA,LINHA C 25 TB 40,S/N,ZONA RURAL,"LINHA C 25 TB 40, ZONA RURAL, CACAULANDIA, RO, BRASIL",-10.25624,-63.29749,"Avenida Rondônia, 76888-000, Monte Negro","10 15m 22.464s S, 63 17m 50.964s W",76888-000
RO,CACAULANDIA,EQUIPE DE PSF DA ZONA RURAL,LOTE 4 GLEBA 06 CUNHA DO MARECHAL,S/N,ZONA RURAL,"LOTE 4 GLEBA 06 CUNHA DO MARECHAL, ZONA RURAL, CACAULANDIA, RO, BRASIL",,,,,
RO,CACOAL,UNIDADE DE SAUDE DA FAMILIA JOAQUIM GONCALVES LEDO,RUA SANTO ANDRE N,1729,JARDIM INDUSTRIAL,"RUA SANTO ANDRE N, JARDIM INDUSTRIAL, CACOAL, RO, BRASIL",-11.43802,-61.46054,"Rua Santo André, 76967, Cacoal","11 26m 16.872s S, 61 27m 37.944s W",76967
RO,CACOAL,UBS SAO MARCOS,LOTE 17 H ESQUINA C RUA PROJETADA E,S/N,COLINA VERDE,"LOTE 17 H ESQUINA C RUA PROJETADA E, COLINA VERDE, CACOAL, RO, BRASIL",-25.78113,-53.31316,"Rua Costa e Silva, 17, 85670-000, Salto do Lontra","25 46m 52.068s S, 53 18m 47.376s W",85670-000
RO,CACOAL,UNIDADE BASICA DE SAUDE CRISTO REI,RUA ANTONIO DE PAULA NUNES N,3441,FLORESTA,"RUA ANTONIO DE PAULA NUNES N, FLORESTA, CACOAL, RO, BRASIL",-11.43834,-61.43299,"Rua Antônio de Paula Nunes, 76963, 76965, Cacoal","11 26m 18.024s S, 61 25m 58.764s W",76963
RO,CACOAL,UBS MARINA DONARIA DE LIMA DIVINOPOLIS,LINHA 14 KM 25 0 LOTE 06 GBEBA 14,S/N,RURAL,"LINHA 14 KM 25 0 LOTE 06 GBEBA 14, RURAL, CACOAL, RO, BRASIL",,,,,
RO,CACOAL,UNIDADE DE SAUDE DA FAMILIA EDMUR JOSE MARCHIOLI,RUA TRAVESSA 1 DE MAIO N,1161,LIBERDADE,"RUA TRAVESSA 1 DE MAIO N, LIBERDADE, CACOAL, RO, BRASIL",-6.07289,-35.24155,"Travessa Um de Maio, 1, 59162-000, São José de Mipibu","6 4m 22.404s S, 35 14m 29.58s W",59162-000
RO,CACOAL,UBS HABITAR BRASIL,BENICIO JOSE PINTO,2605,HABITAR BRASIL,"BENICIO JOSE PINTO, HABITAR BRASIL, CACOAL, RO, BRASIL",-11.42447,-61.47844,"Rua Benício José Pinto, 76960-296, Cacoal","11 25m 28.092s S, 61 28m 42.384s W",76960-296
RO,CACOAL,UBS MORADA DO BOSQUE,RUA PROJETADA E,0,MORADA DO BOSQUE,"RUA PROJETADA E, MORADA DO BOSQUE, CACOAL, RO, BRASIL",-9.57545,-35.77584,"Rua Eliete Rolemberg de Figueiredo & Rua W Conjunto Morada Bosque, 57061, Maceió","9 34m 31.62s S, 35 46m 33.024s W",57061
RO,CACOAL,UBS CLEIDE GOMES ALPHA PARQUE,AV NAPOLEAO FERREIRA VIEIRA,S/N,ALPHA PARQUE,"AV NAPOLEAO FERREIRA VIEIRA, ALPHA PARQUE, CACOAL, RO, BRASIL",-11.43297,-61.43302,"Rua Doutor Miguel Vieira Ferreira, Cacoal","11 25m 58.692s S, 61 25m 58.872s W",
RO,CACOAL,UNIDADE DE SAUDE DA FAMILIA VILAGE DO SOL,CHACARA PASSARGADA,S/N,VILAGE DO SOL,"CHACARA PASSARGADA, VILAGE DO SOL, CACOAL, RO, BRASIL",-11.42046,-61.43805,"Vilage do Sol, Cacoal","11 25m 13.656s S, 61 26m 16.98s W",
RO,CACOAL,UNIDADE BASICA DE SAUDE NOVA ESPERANCA,RUA ANA LUCIA,1868,NOVO CACOAL,"RUA ANA LUCIA, NOVO CACOAL, CACOAL, RO, BRASIL",-11.42293,-61.46098,"Rua Ana Lúcia, 76962, Cacoal","11 25m 22.548s S, 61 27m 39.528s W",76962
RO,CACOAL,CASA DE DETENCAO DE CACOAL,AV ITAPEMERIM,421,BRIZON,"AV ITAPEMERIM, BRIZON, CACOAL, RO, BRASIL",-11.42048,-61.45342,"Rua O, 76960, Cacoal","11 25m 13.728s S, 61 27m 12.312s W",76960
RO,CACOAL,UNIDADE BASICA DE SAUDE SAO JUDAS TADEU,RUA JOSE MARQUES DE OLIVEIRA,5186,RIOZINHO,"RUA JOSE MARQUES DE OLIVEIRA, RIOZINHO, CACOAL, RO, BRASIL",-11.5069907,-61.360830500000006,"Rua José Marques de Oliveira, Riozinho, Cacoal, Região Geográfica Imediata de Cacoal, Região Geográfica Intermediária de Ji-Paraná, Rondônia, Região Norte, Brasil","11 30m 25.1665s S, 61 21m 38.9898s W",
RO,CAMPO NOVO DE RONDONIA,UNIDADE DE ATENDIMENTO PSF DISTRITO RIO BRANCO CAMPO NOVO,DISTRITO RIO BRANCO,0,ZONA RURAL,"DISTRITO RIO BRANCO, ZONA RURAL, CAMPO NOVO DE RONDONIA, RO, BRASIL",-10.57096,-63.62028,"Avenida Rio Branco, 76887-000, Campo Novo de Rondônia","10 34m 15.456s S, 63 37m 13.008s W",76887-000
RO,CAMPO NOVO DE RONDONIA,UNIDADE DE ATENDIMENTO PSF BR 421 KM 153 L 03 CAMPO NOVO,BR 421 KM 135,0,ZONA RURAL,"BR 421 KM 135, ZONA RURAL, CAMPO NOVO DE RONDONIA, RO, BRASIL",-10.34425,-63.59862,"BR-421, 76887-000, Campo Novo de Rondônia","10 20m 39.3s S, 63 35m 55.032s W",76887-000
RO,CAMPO NOVO DE RONDONIA,UNIDADE DE ATENDIMENTO PSF VILA UNIAO CAMPO NOVO,LINHA C 18,0,ZONA RURAL,"LINHA C 18, ZONA RURAL, CAMPO NOVO DE RONDONIA, RO, BRASIL",-10.20245,-63.83422,"Rua Campo Novo de Rondônia, 18, 76880-000, Buritis","10 12m 8.82s S, 63 50m 3.192s W",76880-000
RO,CAMPO NOVO DE RONDONIA,UNIDADE DE ATENDIMENTO PSF PACAAS NOVOS URBANO,AVENIDA 15 DE OUTUBRO,S/N,SETOR 1,"AVENIDA 15 DE OUTUBRO, SETOR 1, CAMPO NOVO DE RONDONIA, RO, BRASIL",-10.56217,-63.617,"Avenida 15 de Outubro, 15, 76887-000, Campo Novo de Rondônia","10 33m 43.812s S, 63 37m 1.2s W",76887-000
RO,CAMPO NOVO DE RONDONIA,UNIDADE HOSPITALAR REDE BASICA HPP CAMPO NOVO,AV 1 DE MAIO,717,SETOR 03,"AV 1 DE MAIO, SETOR 03, CAMPO NOVO DE RONDONIA, RO, BRASIL",-10.56895,-63.61715,"Avenida 1 de Maio, 1, 76887-000, Campo Novo de Rondônia","10 34m 8.22s S, 63 37m 1.74s W",76887-000
RO,CANDEIAS DO JAMARI,UNIDADE BASICA DE SAUDE SAO PEDRO,DISTRITO DE TRIUNFO,210,ZONA RURAL,"DISTRITO DE TRIUNFO, ZONA RURAL, CANDEIAS DO JAMARI, RO, BRASIL",-9.28181,-63.46898,"Avenida Triunfo, 76860-000, Candeias do Jamari","9 16m 54.516s S, 63 28m 8.328s W",76860-000
RO,CANDEIAS DO JAMARI,UNIDADE BASICA DE SAUDE SANTA ISABEL PSF,RUA ANALIA,108,UNIAO,"RUA ANALIA, UNIAO, CANDEIAS DO JAMARI, RO, BRASIL",-9.28584,-63.46169,"Rua Marginal, 76860-000, Candeias do Jamari","9 17m 9.024s S, 63 27m 42.084s W",76860-000
RO,CANDEIAS DO JAMARI,UNIDADE BASICA DE SAUDE NOVA SAMUEL,LINHA 45 KM 9 5,S/N,ZONA RURAL,"LINHA 45 KM 9 5, ZONA RURAL, CANDEIAS DO JAMARI, RO, BRASIL",-8.79684,-63.7149,"Rua Nove, 45, 76860-000, Candeias do Jamari","8 47m 48.624s S, 63 42m 53.64s W",76860-000
RO,CANDEIAS DO JAMARI,UNIDADE BASICA DE SAUDE UNIAO PALHEIRAL,AV AFONSO PENA,79,UNIAO,"AV AFONSO PENA, UNIAO, CANDEIAS DO JAMARI, RO, BRASIL",-8.7899,-63.69886,"Rua Afonso Pena, 76860-000, Candeias do Jamari","8 47m 23.64s S, 63 41m 55.896s W",76860-000
RO,CANDEIAS DO JAMARI,UNIDADE MISTA DE SAUDE SANTA IZABEL,RUA ZACARIAS VICENTE DOS SANTOS,294,UNIAO,"RUA ZACARIAS VICENTE DOS SANTOS, UNIAO, CANDEIAS DO JAMARI, RO, BRASIL",-8.79485,-63.70658,"Rua Zacarias Vicente dos Santos, 76860-000, Candeias do Jamari","8 47m 41.46s S, 63 42m 23.688s W",76860-000
RO,CANDEIAS DO JAMARI,UNIDADE BASICA DE SAUDE COLINA,BR 364,S/N,ZONA RURAL,"BR 364, ZONA RURAL, CANDEIAS DO JAMARI, RO, BRASIL",-8.90849,-63.43646,"BR-364, 76860-000, Candeias do Jamari","8 54m 30.564s S, 63 26m 11.256s W",76860-000
RO,CASTANHEIRAS,UNIDADE MISTA CASTANHEIRAS,AVENIDA PINHEIROS,2081,CENTRO,"AVENIDA PINHEIROS, CENTRO, CASTANHEIRAS, RO, BRASIL",-11.1367,-58.60675,"Rua W, 78345-000, Castanheira","11 8m 12.12s S, 58 36m 24.3s W",78345-000
RO,CASTANHEIRAS,CENTRO DE SAUDE DO DISTRITO DE JARDINOPOLIS,DISTRITO DE JARDINOPOLIS,S/N,DISTRITO DE JARDINOP,"DISTRITO DE JARDINOPOLIS, DISTRITO DE JARDINOP, CASTANHEIRAS, RO, BRASIL",-22.08767,-55.35038,"Distrito de Itahum, Dourados","22 5m 15.612s S, 55 21m 1.368s W",
RO,CASTANHEIRAS,UBS UNIDADE BASICA DE SAUDE ALBINO ALVES DA SILVA,RUA V 8,S/N,VISTA ALEGRE,"RUA V 8, VISTA ALEGRE, CASTANHEIRAS, RO, BRASIL",-10.19932,-63.83247,"Rua Vista Alegre, 8, 76880-000, Buritis","10 11m 57.552s S, 63 49m 56.892s W",76880-000
RO,CEREJEIRAS,US DA FAMILIA FUND NAC DE SAUDE SETOR B,AV DAS NACOES,2115,CENTRO,"AV DAS NACOES, CENTRO, CEREJEIRAS, RO, BRASIL",-13.18889,-60.81625,"Avenida das Nações, 76997-000, Cerejeiras","13 11m 20.004s S, 60 48m 58.5s W",76997-000
RO,CEREJEIRAS,CENTRO DE SAUDE BOM JESUS CEREJEIRAS,FERNANDO DE NORONHA,74,BAIRRO FLORESTA,"FERNANDO DE NORONHA, BAIRRO FLORESTA, CEREJEIRAS, RO, BRASIL",-13.19283,-60.82746,"Rua Fernando de Noronha, 76997-000, Cerejeiras","13 11m 34.188s S, 60 49m 38.856s W",76997-000
RO,CEREJEIRAS,PSF CEREJEIRAS G,RUA MARIA GODOY DURAN,2955,CENTRO,"RUA MARIA GODOY DURAN, CENTRO, CEREJEIRAS, RO, BRASIL",-13.20238,-60.81596,"Rua Maria A.G. Duran, 76997-000, Cerejeiras","13 12m 8.568s S, 60 48m 57.456s W",76997-000
RO,CEREJEIRAS,EACS II,RUA MARIA GODOI DURAN,2955,ANCHIETA,"RUA MARIA GODOI DURAN, ANCHIETA, CEREJEIRAS, RO, BRASIL",-13.20238,-60.81596,"Rua Maria A.G. Duran, 76997-000, Cerejeiras","13 12m 8.568s S, 60 48m 57.456s W",76997-000
RO,CEREJEIRAS,PSF A MARIA J N DE CARVALHO CEREJEIRAS,RUA FERNANDO DE NORONHA,831,SETOR A,"RUA FERNANDO DE NORONHA, SETOR A, CEREJEIRAS, RO, BRASIL",-13.19283,-60.82746,"Rua Fernando de Noronha, 76997-000, Cerejeiras","13 11m 34.188s S, 60 49m 38.856s W",76997-000
RO,CEREJEIRAS,PSF FELIZ DR HERCILIO DA SILVA DUTRA,RUA FERNANDO DE NORONHA LOTE 5 1,74,BAIRRO FLORESTA,"RUA FERNANDO DE NORONHA LOTE 5 1, BAIRRO FLORESTA, CEREJEIRAS, RO, BRASIL",-13.19283,-60.82746,"Rua Fernando de Noronha, 76997-000, Cerejeiras","13 11m 34.188s S, 60 49m 38.856s W",76997-000
RO,CHUPINGUAIA,UNIDADE SAUDE DA FAMILIA CLEMENTE MEURER,LINHA 90,S/N,ZONA RURAL,"LINHA 90, ZONA RURAL, CHUPINGUAIA, RO, BRASIL",-11.19014,-62.17342,"Linha 90, 90, 76930-000, Alvorada d'Oeste","11 11m 24.504s S, 62 10m 24.312s W",76930-000
RO,CHUPINGUAIA,UNIDADE MISTA DE SAUDE JOSE IVALDO DE SOUZA,RUA OSVALDO CRUZ,1495,CENTRO,"RUA OSVALDO CRUZ, CENTRO, CHUPINGUAIA, RO, BRASIL",-11.34494,-62.28147,"Rua Osvaldo Cruz, Alvorada d'Oeste","11 20m 41.784s S, 62 16m 53.292s W",
RO,CHUPINGUAIA,UNIDADE SAUDE DA FAMILIA ATAIDE JOSE DA SILVA,AV TANCREDO NEVES,S/N,ZONA RURAL,"AV TANCREDO NEVES, ZONA RURAL, CHUPINGUAIA, RO, BRASIL",-9.71425,-63.3188,"Avenida Tancredo Neves, 76862-000, Alto Paraíso","9 42m 51.3s S, 63 19m 7.68s W",76862-000
RO,CHUPINGUAIA,UNIDADE SAUDE DA FAMILIA SALETE CORDEIRO,LINHA 85 SETOR GUAPORE BR 391,S/N,ZONA RURAL,"LINHA 85 SETOR GUAPORE BR 391, ZONA RURAL, CHUPINGUAIA, RO, BRASIL",-12.2302,-60.68869,"RO-391, 76990, 76992, Chupinguaia","12 13m 48.72s S, 60 41m 19.284s W",76990
RO,CHUPINGUAIA,UNIDADE SAUDE DA FAMILIA OLAIA ALVES DA SILVA,AV 25,S/N,CIDADE ALTA,"AV 25, CIDADE ALTA, CHUPINGUAIA, RO, BRASIL",-11.72549,-61.80105,"Avenida Vinte e Cinco de Agosto, 76940-000, Rolim de Moura","11 43m 31.764s S, 61 48m 3.78s W",76940-000
RO,COLORADO DO OESTE,UNIDADE BASICA ENFER JOSE RONALDO DOS SANTOS SOUZA,RUA MARANHAO,4889,SAO JORGE,"RUA MARANHAO, SAO JORGE, COLORADO DO OESTE, RO, BRASIL",-13.11514,-60.53427,"Rua Maranhão, 76993-000, Colorado do Oeste","13 6m 54.504s S, 60 32m 3.372s W",76993-000
RO,COLORADO DO OESTE,UNIDADE BASICA DE SAUDE ANGELO ANGELIN,RUA CAMBARA,5151,JO SATO,"RUA CAMBARA, JO SATO, COLORADO DO OESTE, RO, BRASIL",-13.12541,-60.5493,"Rua Cambará, 76993-000, Colorado do Oeste","13 7m 31.476s S, 60 32m 57.48s W",76993-000
RO,COLORADO DO OESTE,UNIDADE BASICA DE SAUDE JOIS ANTONIO DE SOUZA,RUA MATO GROSSO,4366,CENTRO,"RUA MATO GROSSO, CENTRO, COLORADO DO OESTE, RO, BRASIL",-13.11873,-60.53946,"Rua Mato Grosso, 76993-000, Colorado do Oeste","13 7m 7.428s S, 60 32m 22.056s W",76993-000
RO,COLORADO DO OESTE,UNIDADE BASICA DE SAUDE LUIZA MAURICIO SIMOES,AVENIDA SOLIMOES,4400,CENTRO,"AVENIDA SOLIMOES, CENTRO, COLORADO DO OESTE, RO, BRASIL",-13.12733,-60.5451,"Avenida Salimões, 76993-000, Colorado do Oeste","13 7m 38.388s S, 60 32m 42.36s W",76993-000
RO,COLORADO DO OESTE,UNIDADE BASICA DE SAUDE NATALIA FABIANO LOPES,AVENIDA GUAPORE,3281,SANTA LUZIA,"AVENIDA GUAPORE, SANTA LUZIA, COLORADO DO OESTE, RO, BRASIL",-13.11792,-60.55313,"Avenida Guaporé, 76993-000, Colorado do Oeste","13 7m 4.512s S, 60 33m 11.268s W",76993-000
RO,CORUMBIARA,UNIDADE BASICA DE SAUDE VERDE SERINGAL,LINHA 07 KM 25,S/N,ZONA RURAL,"LINHA 07 KM 25, ZONA RURAL, CORUMBIARA, RO, BRASIL",-9.9135,-62.99851,"Linha Gaúcha Km 07, 76877, Ariquemes","9 54m 48.6s S, 62 59m 54.636s W",76877
RO,CORUMBIARA,JOSE DANTAS DE MELO VERDE SERINGAL,AVENIDA OLAVO PIRES,S/N,DISTRITO ALTO GUARAJ,"AVENIDA OLAVO PIRES, DISTRITO ALTO GUARAJ, CORUMBIARA, RO, BRASIL",-11.12902,-62.3693,"Rua Olavo Pires, Urupá","11 7m 44.472s S, 62 22m 9.48s W",
RO,CORUMBIARA,UNIDADE SAUDE DA FAMILIA FRANCISCO SOARES DOS SANTOS,AVENIDA GUARAJUS,S/N,CENTRO,"AVENIDA GUARAJUS, CENTRO, CORUMBIARA, RO, BRASIL",-11.7243,-61.77425,"Rua Corumbiara, 76940-000, Rolim de Moura","11 43m 27.48s S, 61 46m 27.3s W",76940-000
RO,CORUMBIARA,MARIA APARECIDA MAURICIO,AVENIDA J K,S/N,CENTRO,"AVENIDA J K, CENTRO, CORUMBIARA, RO, BRASIL",-11.72028,-61.77424,"Avenida João Pessoa & Rua Corumbiara, 76940, Rolim de Moura","11 43m 13.008s S, 61 46m 27.264s W",76940
RO,CORUMBIARA,UNIDADE BASICA DE SAUDE ADAO ANTONIO DA COSTA,VITORIA DA UNIAO,S/N,ZONA RURAL,"VITORIA DA UNIAO, ZONA RURAL, CORUMBIARA, RO, BRASIL",-26.22122,-51.10715,"Dona Mercedes, União da Vitória","26 13m 16.392s S, 51 6m 25.74s W",
RO,COSTA MARQUES,UNIDADE MISTA COSTA MARQUES,AV CABIXI,2026,CENTRO,"AV CABIXI, CENTRO, COSTA MARQUES, RO, BRASIL",-12.44281,-64.22595,"Avenida Cabixi, 76937-000, Costa Marques","12 26m 34.116s S, 64 13m 33.42s W",76937-000
RO,COSTA MARQUES,UBS ANTONIO CARVALHO E SILVA,AV CHIANCA,2035,SETOR 03,"AV CHIANCA, SETOR 03, COSTA MARQUES, RO, BRASIL",-12.43495,-64.22946,"Avenida Chianca, 76937-000, Costa Marques","12 26m 5.82s S, 64 13m 46.056s W",76937-000
RO,COSTA MARQUES,CENTRO DE SAUDE LIMOEIRO,AV LIMOEIRO,S/N,CENTRO,"AV LIMOEIRO, CENTRO, COSTA MARQUES, RO, BRASIL",-12.43583,-64.2305,"Avenida Limoeiro, 76937, Costa Marques","12 26m 8.988s S, 64 13m 49.8s W",76937
RO,COSTA MARQUES,CENTRO DE SAUDE SAO DOMINGOS,BR 429 KM 058,S/N,ZONA RURAL,"BR 429 KM 058, ZONA RURAL, COSTA MARQUES, RO, BRASIL",-12.08767,-64.07198,"BR-429, 76937-000, Costa Marques","12 5m 15.612s S, 64 4m 19.128s W",76937-000
RO,CUJUBIM,UNIDADE BASICA DE SAUDE VANILDO CHAGAS HADMAN,AVENIDA MARACANA,S/N,SETOR 01,"AVENIDA MARACANA, SETOR 01, CUJUBIM, RO, BRASIL",-9.37045,-62.58785,"Avenida Maracana, 76864-000, Cujubim","9 22m 13.62s S, 62 35m 16.26s W",76864-000
RO,ESPIGAO D'OESTE,POSTO DE SAUDE DIFERENCIADO NUAR NOVA ESPERANCA,NUCLEO NOVA ESPERANCA,2042,NOVA ESPERANCA,"NUCLEO NOVA ESPERANCA, NOVA ESPERANCA, ESPIGAO D'OESTE, RO, BRASIL",-11.73582,-62.30644,"Rua Boa Esperança, 76958-000, Nova Brasilândia d'Oeste","11 44m 8.952s S, 62 18m 23.184s W",76958-000
RO,ESPIGAO D'OESTE,CENTRO DE SAUDE ARLINDO CRISTO,RUA ALAGOAS,2666,CENTRO,"RUA ALAGOAS, CENTRO, ESPIGAO D'OESTE, RO, BRASIL",-11.53143,-61.01809,"Rua Alagoas, 76974-000, Espigão d'Oeste","11 31m 53.148s S, 61 1m 5.124s W",76974-000
RO,ESPIGAO D'OESTE,POSTO DE SAUDE MATERNO INFANTIL SUELI RODRIGUES,RUA SAO PAULO,3352,LIBERDADE,"RUA SAO PAULO, LIBERDADE, ESPIGAO D'OESTE, RO, BRASIL",-11.53085,-61.00805,"Rua São Paulo, 76974-000, Espigão d'Oeste","11 31m 51.06s S, 61 0m 28.98s W",76974-000
RO,ESPIGAO D'OESTE,POSTO DE SAUDE MUNICIPAL HELVECIO BARBOSA LAGARES,RUA CINTA LARGA,2121,SAO JOSE,"RUA CINTA LARGA, SAO JOSE, ESPIGAO D'OESTE, RO, BRASIL",-11.53544,-61.02254,"Rua Cinta Larga, 76974-000, Espigão d'Oeste","11 32m 7.584s S, 61 1m 21.144s W",76974-000
RO,ESPIGAO D'OESTE,POSTO DE SAUDE VISTA ALEGRE,RUA CHAPEU DE COURO,1788,VISTA ALEGRE,"RUA CHAPEU DE COURO, VISTA ALEGRE, ESPIGAO D'OESTE, RO, BRASIL",-11.54331,-61.02009,"Rua Novo Oeste, 76974-000, Espigão d'Oeste","11 32m 35.916s S, 61 1m 12.324s W",76974-000
RO,ESPIGAO D'OESTE,POSTO DE SAUDE BOA VISTA ESPIGAO DOESTE,ESTRADA PACARANA KM 85,2671,ZONA RURAL,"ESTRADA PACARANA KM 85, ZONA RURAL, ESPIGAO D'OESTE, RO, BRASIL",-11.00564,-60.84596,"Boa Vista de Pacarana, Espigão d'Oeste","11 0m 20.304s S, 60 50m 45.456s W",
RO,ESPIGAO D'OESTE,PS ASSENTAMENTO ESPIGAO DOESTE,LINHA 5 KM 35,S/N,ZONA RURAL,"LINHA 5 KM 35, ZONA RURAL, ESPIGAO D'OESTE, RO, BRASIL",-11.50704,-62.46048,"Linha 29, 5, 76930-000, Alvorada d'Oeste","11 30m 25.344s S, 62 27m 37.728s W",76930-000
RO,ESPIGAO D'OESTE,POSTO DE SAUDE ANGELO MOACIR PERINI,AVENIDA PIAUI,4076,JORGE TEIXEIRA,"AVENIDA PIAUI, JORGE TEIXEIRA, ESPIGAO D'OESTE, RO, BRASIL",-11.53806,-61.00637,"Avenida Piauí, 76974-000, Espigão d'Oeste","11 32m 17.016s S, 61 0m 22.932s W",76974-000
RO,ESPIGAO D'OESTE,UNIDADE BASICA DE SAUDE GEBALDO DOS REIS,RUA PARAIBA,1953,CIDADE ALTA,"RUA PARAIBA, CIDADE ALTA, ESPIGAO D'OESTE, RO, BRASIL",-11.51721,-61.01063,"Cidade Alta, Espigão d'Oeste","11 31m 1.956s S, 61 0m 38.268s W",
RO,ESPIGAO D'OESTE,PS LINHA 14 DE ABRIL ESPIGAO DOESTE,LINHA 14 DE ABRIL KM 45,S/N,ZONA RURAL,"LINHA 14 DE ABRIL KM 45, ZONA RURAL, ESPIGAO D'OESTE, RO, BRASIL",-11.33658,-62.27817,"Avenida 21 de Abril, 14, 76930-000, Alvorada d'Oeste","11 20m 11.688s S, 62 16m 41.412s W",76930-000
RO,GOVERNADOR JORGE TEIXEIRA,CENTRO DE SAUDE SUED ALVES,LINHA 621 KM 65,65,ZONA RURAL,"LINHA 621 KM 65, ZONA RURAL, GOVERNADOR JORGE TEIXEIRA, RO, BRASIL",-10.54331,-63.01769,"Rua Principal ou Linha-620, 76898-000, Governador Jorge Teixeira","10 32m 35.916s S, 63 1m 3.684s W",76898-000
RO,GOVERNADOR JORGE TEIXEIRA,CENTRO DE SAUDE DA MULHER GJT,TRAVESSA COPAIBA,2557,CENTRO,"TRAVESSA COPAIBA, CENTRO, GOVERNADOR JORGE TEIXEIRA, RO, BRASIL",-10.61266,-62.73268,"Travessa Copaíba, 76898-000, Governador Jorge Teixeira","10 36m 45.576s S, 62 43m 57.648s W",76898-000
RO,GOVERNADOR JORGE TEIXEIRA,CENTRO DE SAUDE COLINA VERDE GOV JORGE TEIXEIRA,PROJETO COLINA VERDE,S/N,ZONA RURAL,"PROJETO COLINA VERDE, ZONA RURAL, GOVERNADOR JORGE TEIXEIRA, RO, BRASIL",-10.61379,-62.7343,Governador Jorge Teixeira,"10 36m 49.644s S, 62 44m 3.48s W",
RO,GOVERNADOR JORGE TEIXEIRA,UNIDADE BASICA DE SAUDE IVANICIO JOAQUIM DE SANTANA,TRAVESSA COPAIBA,2557,CENTRO,"TRAVESSA COPAIBA, CENTRO, GOVERNADOR JORGE TEIXEIRA, RO, BRASIL",-10.61266,-62.73268,"Travessa Copaíba, 76898-000, Governador Jorge Teixeira","10 36m 45.576s S, 62 43m 57.648s W",76898-000
RO,GOVERNADOR JORGE TEIXEIRA,UNIDADE MISTA GOV JORGE TEIXEIRA,TRAVESSA COPAIBA,2522,CENTRO,"TRAVESSA COPAIBA, CENTRO, GOVERNADOR JORGE TEIXEIRA, RO, BRASIL",-10.61266,-62.73268,"Travessa Copaíba, 76898-000, Governador Jorge Teixeira","10 36m 45.576s S, 62 43m 57.648s W",76898-000
RO,GOVERNADOR JORGE TEIXEIRA,PS LINHA 621 GOV JORGE TEIXEIRA,LINHA 621 KM 40,S/N,ZONA RURAL,"LINHA 621 KM 40, ZONA RURAL, GOVERNADOR JORGE TEIXEIRA, RO, BRASIL",-10.54331,-63.01769,"Rua Principal ou Linha-620, 76898-000, Governador Jorge Teixeira","10 32m 35.916s S, 63 1m 3.684s W",76898-000
RO,GOVERNADOR JORGE TEIXEIRA,PS LINHA 640 GOV JORGE TEIXEIRA,LINHA 640,S/N,ZONA RURAL,"LINHA 640, ZONA RURAL, GOVERNADOR JORGE TEIXEIRA, RO, BRASIL",-10.61379,-62.7343,Governador Jorge Teixeira,"10 36m 49.644s S, 62 44m 3.48s W",
RO,GUAJARA-MIRIM,CENTRO ODONTOLOGICO FRANCISCA EUNICE MACIEL GUAJARA MIRIM,AV GUAPORE,835,PLANALTO,"AV GUAPORE, PLANALTO, GUAJARA-MIRIM, RO, BRASIL",-10.76515,-65.31494,"Avenida Guaporé, Guajará-Mirim","10 45m 54.54s S, 65 18m 53.784s W",
RO,GUAJARA-MIRIM,P DE SAUDE CACHOERINHA,AV CACHOERINHA,S/N,CACHOERINHA,"AV CACHOERINHA, CACHOERINHA, GUAJARA-MIRIM, RO, BRASIL",-8.78439,-63.8904,"Rua Guajará Mirim, 76806, Porto Velho","8 47m 3.804s S, 63 53m 25.44s W",76806
RO,GUAJARA-MIRIM,POSTO DE SAUDE IRMA MARIA SALETE STOFF,RAMAL DE SURPRESA,S/N,SURPRESA,"RAMAL DE SURPRESA, SURPRESA, GUAJARA-MIRIM, RO, BRASIL",-10.77503,-65.32374,"10 de Abril, Guajará-Mirim","10 46m 30.108s S, 65 19m 25.464s W",
RO,GUAJARA-MIRIM,POSTO DE SAUDE ALTAMIRO BARROSO GUAJARA MIRIM,AV DR LEWERGER,4734,LIBERDADE,"AV DR LEWERGER, LIBERDADE, GUAJARA-MIRIM, RO, BRASIL",-10.7697,-65.31675,"Avenida Doutor Lewerger, 76850-000, Guajará-Mirim","10 46m 10.92s S, 65 19m 0.3s W",76850-000
RO,GUAJARA-MIRIM,PS DELTAS OLIVEIRA MARTINEZ GUAJARA MIRIM,AV 8 DE DEZEMBRO,6117,JARDIM DAS ESMERALDA,"AV 8 DE DEZEMBRO, JARDIM DAS ESMERALDA, GUAJARA-MIRIM, RO, BRASIL",-10.75821,-65.30064,"Avenida 8 de Dezembro, 76850-000, Guajará-Mirim","10 45m 29.556s S, 65 18m 2.304s W",76850-000
RO,GUAJARA-MIRIM,CASA DE DETENCAO DE GUAJARA MIRIM,AV MASCARENHA DE MORAIS,1649,10 DE ABRIL,"AV MASCARENHA DE MORAIS, 10 DE ABRIL, GUAJARA-MIRIM, RO, BRASIL",-10.78022,-65.32193,"Avenida Mascarenhas de Moraes, 76850-000, Guajará-Mirim","10 46m 48.792s S, 65 19m 18.948s W",76850-000
RO,GUAJARA-MIRIM,POSTO DE SAUDE RAIMUNDO RODRIGUES,DISTRTO DO IATA,250,IATA,"DISTRTO DO IATA, IATA, GUAJARA-MIRIM, RO, BRASIL",-10.78423,-65.3123,"Beco do Inácio, 76850-000, Guajará-Mirim","10 47m 3.228s S, 65 18m 44.28s W",76850-000
RO,GUAJARA-MIRIM,CENTRO DE SAUDE IRMA M AGOSTINHO GUAJARA MIRIM,RUA ALUIZIO FERREIRA,470,10 DE ABRIL,"RUA ALUIZIO FERREIRA, 10 DE ABRIL, GUAJARA-MIRIM, RO, BRASIL",-10.7764,-65.32098,"Avenida Aluízio Ferreira, 76850-000, Guajará-Mirim","10 46m 35.04s S, 65 19m 15.528s W",76850-000
RO,GUAJARA-MIRIM,CENTRO DE SAUDE CARLOS CHAGAS GUAJARA MIRIM,AV 12 DE JULHO,1423,TAMANDARE,"AV 12 DE JULHO, TAMANDARE, GUAJARA-MIRIM, RO, BRASIL",-10.78065,-65.34367,"Avenida 12 de Julho, 12, 76850-000, Guajará-Mirim","10 46m 50.34s S, 65 20m 37.212s W",76850-000
RO,GUAJARA-MIRIM,CENTRO DE SAUDE SANDOVAL MEIRA GUAJARA MIRIM,RUA JOSE BONIFACIO,455,SERRARIA,"RUA JOSE BONIFACIO, SERRARIA, GUAJARA-MIRIM, RO, BRASIL",-10.78066,-65.32891,"Avenida José Bonifácio, 76850-000, Guajará-Mirim","10 46m 50.376s S, 65 19m 44.076s W",76850-000
RO,ITAPUA DO OESTE,UBS SETOR 04,RUA JOAO SANTANA,S/N,CENTRO,"RUA JOAO SANTANA, CENTRO, ITAPUA DO OESTE, RO, BRASIL",-9.1847,-63.17987,"Rua João Santana da Silva, 76861-000, Itapuã do Oeste","9 11m 4.92s S, 63 10m 47.532s W",76861-000
RO,ITAPUA DO OESTE,UBS SETOR 01,RUA TANCREDO NEVES,S/N,CENTRO,"RUA TANCREDO NEVES, CENTRO, ITAPUA DO OESTE, RO, BRASIL",-10.7348,-62.23994,"Rua Tancredo Neves, 76920-000, Ouro Preto do Oeste","10 44m 5.28s S, 62 14m 23.784s W",76920-000
RO,JARU,CENTRO DE SAUDE DR ANTONIO CARMONA TRESSOLDI JARU,RUA 07 DE SETEMBRO,3177,JARDIM DOS ESTADOS,"RUA 07 DE SETEMBRO, JARDIM DOS ESTADOS, JARU, RO, BRASIL",-20.46367,-54.60021,"Rua 7 de Setembro, 79002, 79020, Campo Grande","20 27m 49.212s S, 54 36m 0.756s W",79002
RO,JARU,POSTO DE SAUDE JOSE AMABILE SANTA CRUZ,LINHA 630 KM 30,S/N,ZONA RURAL,"LINHA 630 KM 30, ZONA RURAL, JARU, RO, BRASIL",-10.51042,-62.4928,"Linha 628, 630, 76890-000, Jaru","10 30m 37.512s S, 62 29m 34.08s W",76890-000
RO,JARU,CASA DE DETENCAO DE JARU,RAIMUNDO CANTANHEIDE,824,SETOR 02,"RAIMUNDO CANTANHEIDE, SETOR 02, JARU, RO, BRASIL",-10.4343,-62.46445,"Rua Raimundo Castanhede, 76890-000, Jaru","10 26m 3.48s S, 62 27m 52.02s W",76890-000
RO,JARU,CENTRO DE SAUDE MARCELINA TEREZA DE CARVALHO JARU,RUA RICARDO CATANHEDE,777,SETOR 3,"RUA RICARDO CATANHEDE, SETOR 3, JARU, RO, BRASIL",-10.43021,-62.47682,"Rua Ricardo Castanhede, 76890-000, Jaru","10 25m 48.756s S, 62 28m 36.552s W",76890-000
RO,JARU,CENTRO DE SAUDE JOAO CASTRO LACERDA JARU,RUA SEBASTIAO CABRAL DE SOUZA,2662,SETOR 4,"RUA SEBASTIAO CABRAL DE SOUZA, SETOR 4, JARU, RO, BRASIL",-10.44787,-62.47521,"Rua Sebastião Cabral de Souza, 4, 76890-000, Jaru","10 26m 52.332s S, 62 28m 30.756s W",76890-000
RO,JARU,UNIDADE DE SAUDE DA FAMILIA RUTE DE SOUZA DE OLIVEIRA JARU,RUA RIO DE JANEIRO,1221,SETOR 7,"RUA RIO DE JANEIRO, SETOR 7, JARU, RO, BRASIL",-10.45248,-62.48188,"Rua Rio de Janeiro, 7, 76890-000, Jaru","10 27m 8.928s S, 62 28m 54.768s W",76890-000
RO,JARU,CENTRO DE SAUDE DR APOLINARIO GOMES DA SILVA JARU,RUA RICARDO CANTANHEDE,777,SETOR 3,"RUA RICARDO CANTANHEDE, SETOR 3, JARU, RO, BRASIL",-10.43021,-62.47682,"Rua Ricardo Castanhede, 76890-000, Jaru","10 25m 48.756s S, 62 28m 36.552s W",76890-000
RO,JARU,CENTRO DE SAUDE OSVALDO CRUZ JARU,RUA RIO DE JANEIRO,3662,SETOR 02,"RUA RIO DE JANEIRO, SETOR 02, JARU, RO, BRASIL",-10.44336,-62.47135,"Rua Rio de Janeiro, 76890-000, Jaru","10 26m 36.096s S, 62 28m 16.86s W",76890-000
RO,JARU,POSTO DE SAUDE PROF JULIA RAFAEL DO NASCIMENTO BOM JESUS,LINHA 610 KM 30,S/N,NUAR BOM JESUS,"LINHA 610 KM 30, NUAR BOM JESUS, JARU, RO, BRASIL",-10.51042,-62.49281,"Linha 628, 610, 76890-000, Jaru","10 30m 37.512s S, 62 29m 34.116s W",76890-000
RO,JARU,UNIDADE DE SAUDE DA FAMILIA DIF IZALTINO LOPES DE ANDRADE,RUA SAULO DA CUNHA,2438,ZONA RURAL,"RUA SAULO DA CUNHA, ZONA RURAL, JARU, RO, BRASIL",-10.8595,-62.80262,"Avenida Saulo da Cunha, 76890-000, Jaru","10 51m 34.2s S, 62 48m 9.432s W",76890-000
RO,JARU,POSTO DE SAUDE GERCY GARCIA DE SOUZA JARU WAURU,LINHA 627 KM 85,S/N,DISTRITO DE JARU WAU,"LINHA 627 KM 85, DISTRITO DE JARU WAU, JARU, RO, BRASIL",-10.47063,-62.46404,"Linha 627, 76890-000, Jaru","10 28m 14.268s S, 62 27m 50.544s W",76890-000
RO,JARU,UNIDADE DE SAUDE DA FAMILIA CARLOS CHAGAS JARU,RUA PADRE ADOLPHO ROHL,3068,SETOR 5,"RUA PADRE ADOLPHO ROHL, SETOR 5, JARU, RO, BRASIL",-10.72876,-62.25884,"Rua Padre Adolpho Rohl, 5, 76920-000, Ouro Preto do Oeste","10 43m 43.536s S, 62 15m 31.824s W",76920-000
RO,JI-PARANA,CENTRO DE SAUDE BNH JIPARANA,RUA CRUZEIRO DO SUL,2653,MARIO ANDREAZZA BNH,"RUA CRUZEIRO DO SUL, MARIO ANDREAZZA BNH, JI-PARANA, RO, BRASIL",-10.89506,-61.91025,"Rua Cruzeiro, 76913, Ji-Paraná","10 53m 42.216s S, 61 54m 36.9s W",76913
RO,JI-PARANA,CENTRO DE SAUDE JUCELINO CARDOSO DE JESUS,AV GOV JORGE TEIXEIRA,2457,NOVA BRASILIA,"AV GOV JORGE TEIXEIRA, NOVA BRASILIA, JI-PARANA, RO, BRASIL",-10.8814,-61.9168,"Rua Governador Jorge Teixeira, 76908, Ji-Paraná","10 52m 53.04s S, 61 55m 0.48s W",76908
RO,JI-PARANA,CASA DE DETENCAO DE JI PARANA PRESIDIO CENTRAL,AV 2 DE ABRIL,S/N,URUPA,"AV 2 DE ABRIL, URUPA, JI-PARANA, RO, BRASIL",-10.87984,-61.95313,"Avenida Dois de Abril, 76900, Ji-Paraná","10 52m 47.424s S, 61 57m 11.268s W",76900
RO,JI-PARANA,UNIDADE BASICA DE SAUDE SAO BERNARDO,RUA DO CIPO,S/N,SAO BERNARDO,"RUA DO CIPO, SAO BERNARDO, JI-PARANA, RO, BRASIL",-10.86385,-61.96885,"Rua do Cipó, 78962, Ji-Paraná","10 51m 49.86s S, 61 58m 7.86s W",78962
RO,JI-PARANA,CENTRO DE SAUDE PRIMAVERA,RUA PLACIDO DE CASTRO,228,PRIMAVERA,"RUA PLACIDO DE CASTRO, PRIMAVERA, JI-PARANA, RO, BRASIL",-10.89734,-61.93409,"Rua Plácido de Castro, 76913, 76914, 78963, Ji-Paraná","10 53m 50.424s S, 61 56m 2.724s W",76913
RO,JI-PARANA,CENTRO DE SAUDE NOVA COLINA JIPARANA,RUA TANCREDO NEVES,1010,NOVA COLINA,"RUA TANCREDO NEVES, NOVA COLINA, JI-PARANA, RO, BRASIL",-10.87244,-61.97766,"Rua Tancredo Neves, Ji-Paraná","10 52m 20.784s S, 61 58m 39.576s W",
RO,JI-PARANA,CENTRO DE SAUDE DE NOVA LONDRINA JIPARANA,RUA BAHIA,1095,NOVA LONDRINA,"RUA BAHIA, NOVA LONDRINA, JI-PARANA, RO, BRASIL",-11.0613134,-62.0099781,"Rua Bahia, Nova Londrina, Ji-Paraná, Região Geográfica Imediata de Ji-Paraná, Região Geográfica Intermediária de Ji-Paraná, Rondônia, Região Norte, Brasil","11 3m 40.7282s S, 62 0m 35.9212s W",
RO,JI-PARANA,PENITENCIARIA REGIONAL DR AGENOR MARTINS DE CARVALHO,ESTRADA DO NAZARE,S/N,ZONA RURAL,"ESTRADA DO NAZARE, ZONA RURAL, JI-PARANA, RO, BRASIL",-10.84601,-61.97054,"Estrada do Quatro, Ji-Paraná","10 50m 45.636s S, 61 58m 13.944s W",
RO,JI-PARANA,CENTRO DE SAUDE SAO FRANCISCO JIPARANA,RUA VILA VELHA,346,SAO FRANCISCO,"RUA VILA VELHA, SAO FRANCISCO, JI-PARANA, RO, BRASIL",-10.87546,-61.92973,"Rua São Francisco, 76912, Ji-Paraná","10 52m 31.656s S, 61 55m 47.028s W",76912
RO,JI-PARANA,CENTRO DE SAUDE DOM BOSCO,RUA MATO GROSSO,3042,DOM BOSCO,"RUA MATO GROSSO, DOM BOSCO, JI-PARANA, RO, BRASIL",-10.86872,-61.94405,"Rua Mato Grosso, 76907, Ji-Paraná","10 52m 7.392s S, 61 56m 38.58s W",76907
RO,JI-PARANA,CENTRO DE SAUDE NOVA BRASILIA JIPARANA,AVENIDA BRASILEIA,1185,RIACHUELO,"AVENIDA BRASILEIA, RIACHUELO, JI-PARANA, RO, BRASIL",-10.89457,-61.92714,"Rua Brasiléia, 76907, 76913, 76914, Ji-Paraná","10 53m 40.452s S, 61 55m 37.704s W",76907
RO,JI-PARANA,CENTRO DE SAUDE 2 DE ABRIL JIPARANA,RUA ANTONIO LAZARO DE MOURA,S/N,02 DE ABRIL,"RUA ANTONIO LAZARO DE MOURA, 02 DE ABRIL, JI-PARANA, RO, BRASIL",-10.87263,-61.97235,"Rua Antônio Ferreira de Freitas, Ji-Paraná","10 52m 21.468s S, 61 58m 20.46s W",
RO,JI-PARANA,RESIDENCIAL TERAPEUTICO,RUA PORTO VELHO,2323,CASA PRETA,"RUA PORTO VELHO, CASA PRETA, JI-PARANA, RO, BRASIL",-10.86568,-61.94507,"Rua Porto Velho, Ji-Paraná","10 51m 56.448s S, 61 56m 42.252s W",
RO,JI-PARANA,CENTRO DE SAUDE L 1 MARINGA JIPARANA,RUA MARINGA,582,NOVA BRASILIA,"RUA MARINGA, NOVA BRASILIA, JI-PARANA, RO, BRASIL",-10.88594,-61.91847,"Rua Maringá, 76908, 78963, 78964, Ji-Paraná","10 53m 9.384s S, 61 55m 6.492s W",76908
RO,JI-PARANA,CENTRO DE SAUDE KM 5 JIPARANA,RUA DOS CRAVOS,2526,SANTIAGO,"RUA DOS CRAVOS, SANTIAGO, JI-PARANA, RO, BRASIL",-10.86277,-61.97751,"Rua dos Cravos, 78962-300, Ji-Paraná","10 51m 45.972s S, 61 58m 39.036s W",78962-300
RO,MACHADINHO D'OESTE,UBS 5 BEC,RUA DOS PIONEIROS,S/N,DISTRIO 5 BEC,"RUA DOS PIONEIROS, DISTRIO 5 BEC, MACHADINHO D'OESTE, RO, BRASIL",-9.68824,-62.21385,"Rua dos Pioneiros, 76868-000, Machadinho d'Oeste","9 41m 17.664s S, 62 12m 49.86s W",76868-000
RO,MACHADINHO D'OESTE,UBS MACIEL FILISMINO DA SILVA,LH 28 RO 205 DISTRITO DE ENTRE RIOS,S/N,ZONA RURAL,"LH 28 RO 205 DISTRITO DE ENTRE RIOS, ZONA RURAL, MACHADINHO D'OESTE, RO, BRASIL",-20.66164,-44.07671,"Rua Realina de Oliveira Batista, 28, 35490-000, Entre Rios de Minas","20 39m 41.904s S, 44 4m 36.156s W",35490-000
RO,MACHADINHO D'OESTE,UBS CAMILA LIMA GERONIMO,AV TANCREDO NEVES,S/N,CENTRO,"AV TANCREDO NEVES, CENTRO, MACHADINHO D'OESTE, RO, BRASIL",-9.42046,-61.99223,"Avenida Tancredo Neves, 76868-000, Machadinho d'Oeste","9 25m 13.656s S, 61 59m 32.028s W",76868-000
RO,MACHADINHO D'OESTE,UBS GLEBA 04,ASSENTAMENTO GLEBA 04,S/N,ZONA RURAL,"ASSENTAMENTO GLEBA 04, ZONA RURAL, MACHADINHO D'OESTE, RO, BRASIL",-9.42691,-62.00717,Machadinho d'Oeste,"9 25m 36.876s S, 62 0m 25.812s W",
RO,MACHADINHO D'OESTE,UBS IZAIAS DIAS,AV DIOMERO MORAIS BORBA ESQ COM AVENIDA TANGARA,3240,BOM FUTURO E UNIAO,"AV DIOMERO MORAIS BORBA ESQ COM AVENIDA TANGARA, BOM FUTURO E UNIAO, MACHADINHO D'OESTE, RO, BRASIL",,,,,
RO,MACHADINHO D'OESTE,UBS JORGE BALBINO DE OLIVEIRA,LINHA MA 35 KM 38,S/N,ZONA RURAL,"LINHA MA 35 KM 38, ZONA RURAL, MACHADINHO D'OESTE, RO, BRASIL",-10.19735,-63.82723,"Rua Machadinho d'Oeste, 38, 76880-000, Buritis","10 11m 50.46s S, 63 49m 38.028s W",76880-000
RO,MACHADINHO D'OESTE,UBS UNIAO,AV TANGARA,S/N,BOM FUTURO,"AV TANGARA, BOM FUTURO, MACHADINHO D'OESTE, RO, BRASIL",-9.42453,-61.99135,"Avenida Tangará, Machadinho d'Oeste","9 25m 28.308s S, 61 59m 28.86s W",
RO,MINISTRO ANDREAZZA,UNIDADE MISTA MINISTRO ANDREAZZA,RUA MARTINHO LUTERO,S/N,CENTRO,"RUA MARTINHO LUTERO, CENTRO, MINISTRO ANDREAZZA, RO, BRASIL",-11.19672,-61.51853,"Rua Martinho Lutero, 76919-000, Ministro Andreazza","11 11m 48.192s S, 61 31m 6.708s W",76919-000
RO,MINISTRO ANDREAZZA,CENTRO DIFERENCIADO DE SAUDE JOAO PAULO,RUA MARTINHO LUTERO,5212,CENTRO,"RUA MARTINHO LUTERO, CENTRO, MINISTRO ANDREAZZA, RO, BRASIL",-11.19672,-61.51853,"Rua Martinho Lutero, 76919-000, Ministro Andreazza","11 11m 48.192s S, 61 31m 6.708s W",76919-000
RO,MINISTRO ANDREAZZA,POSTO DE SAUDE ALDEIA LINHA 07 PAYAMA,ALDEIA LH07,S/N,ZONA RURAL,"ALDEIA LH07, ZONA RURAL, MINISTRO ANDREAZZA, RO, BRASIL",-11.19687,-61.51851,Ministro Andreazza,"11 11m 48.732s S, 61 31m 6.636s W",
RO,MINISTRO ANDREAZZA,UNIDADE DE SAUDE ELOI DE LIMA MACHADO,RUA BAHIA,6489,JARDIM AMERICA,"RUA BAHIA, JARDIM AMERICA, MINISTRO ANDREAZZA, RO, BRASIL",-29.15716,-51.16522,"Rua Bahia, 95050-060, Caxias do Sul","29 9m 25.776s S, 51 9m 54.792s W",95050-060
RO,MIRANTE DA SERRA,UBS NARCISO FERREIRA,RUA PERNAMBUCO,S/N,SETOR 2,"RUA PERNAMBUCO, SETOR 2, MIRANTE DA SERRA, RO, BRASIL",-11.03365,-62.67743,"Rua Pernambuco, 2, 76926-000, Mirante da Serra","11 2m 1.14s S, 62 40m 38.748s W",76926-000
RO,MIRANTE DA SERRA,UBS DR SAMUEL PAULO THOMAS,AVN BRASIL,2497,CENTRO,"AVN BRASIL, CENTRO, MIRANTE DA SERRA, RO, BRASIL",-11.03124,-62.67452,Mirante da Serra,"11 1m 52.464s S, 62 40m 28.272s W",
RO,MIRANTE DA SERRA,UNIDADE MISTA DE SAUDE SAMUEL MARQUES DOS SANTOS,RUA MINAS GERAIS,S/N,SETOR 2,"RUA MINAS GERAIS, SETOR 2, MIRANTE DA SERRA, RO, BRASIL",-11.03802,-62.6811,"Rua Minas Gerais, 2, 76926-000, Mirante da Serra","11 2m 16.872s S, 62 40m 51.96s W",76926-000
RO,MONTE NEGRO,CENTRO DE SAUDE ESF MASSANGANA UNIDADE 04,MINERACAO MASSANGANA,S/N,ZONA RURAL,"MINERACAO MASSANGANA, ZONA RURAL, MONTE NEGRO, RO, BRASIL",-10.26267,-63.29793,Monte Negro,"10 15m 45.612s S, 63 17m 52.548s W",
RO,MONTE NEGRO,POSTO DE SAUDE SETOR 4,1 RUA SETOR 04,S/N,SETOR 4,"1 RUA SETOR 04, SETOR 4, MONTE NEGRO, RO, BRASIL",-10.248,-63.3005,"Rua Quatro, 1, 76888-000, Monte Negro","10 14m 52.8s S, 63 18m 1.8s W",76888-000
RO,MONTE NEGRO,CENTRO DE SAUDE DE MONTE NEGRO,RUA CARLOS CHAGAS,2323,CENTRO,"RUA CARLOS CHAGAS, CENTRO, MONTE NEGRO, RO, BRASIL",-10.26157,-63.2945,"Rua Carlos Chagas, 76888-000, Monte Negro","10 15m 41.652s S, 63 17m 40.2s W",76888-000
RO,MONTE NEGRO,CLINICA DA MULHER,RUA BRAULINO PEREIRA GOMES,2829,SETOR 02,"RUA BRAULINO PEREIRA GOMES, SETOR 02, MONTE NEGRO, RO, BRASIL",-10.26489,-63.29712,"Rua Braulinio Pereira Gomes, 76888-000, Monte Negro","10 15m 53.604s S, 63 17m 49.632s W",76888-000
RO,MONTE NEGRO,CENTRO DE SAUDE LINHA C 35,BR 421 LINHA C 35,S/N,ZONA RURAL,"BR 421 LINHA C 35, ZONA RURAL, MONTE NEGRO, RO, BRASIL",-10.25624,-63.29749,"Avenida Rondônia, 76888-000, Monte Negro","10 15m 22.464s S, 63 17m 50.964s W",76888-000
RO,NOVA BRASILANDIA D'OESTE,CENTRO DE SAUDE DA MULHER,AVENIDA JK,3371,SETOR 14,"AVENIDA JK, SETOR 14, NOVA BRASILANDIA D'OESTE, RO, BRASIL",-11.71995,-62.31735,Nova Brasilândia d'Oeste,"11 43m 11.82s S, 62 19m 2.46s W",
RO,NOVA BRASILANDIA D'OESTE,CENTRO DE SAUDE SULIVAN,AVENIDA JK,S/N,SETOR 14,"AVENIDA JK, SETOR 14, NOVA BRASILANDIA D'OESTE, RO, BRASIL",-11.71995,-62.31735,Nova Brasilândia d'Oeste,"11 43m 11.82s S, 62 19m 2.46s W",
RO,NOVA BRASILANDIA D'OESTE,CENTRO DE SAUDE SETOR TREZE,RUA GETULIO VARGAS,1245,SETOR 13,"RUA GETULIO VARGAS, SETOR 13, NOVA BRASILANDIA D'OESTE, RO, BRASIL",-11.72509,-62.31929,"Rua Getúlio Vargas, Nova Brasilândia d'Oeste","11 43m 30.324s S, 62 19m 9.444s W",
RO,NOVA MAMORE,CENTRO DE SAUDE ELENIZA FELIX DO CARMO,AVENIDA CECILIA MEIRELES,S/N,CENTRO,"AVENIDA CECILIA MEIRELES, CENTRO, NOVA MAMORE, RO, BRASIL",-10.4043,-65.33295,"Avenida Cecília Meireles, 76857-000, Nova Mamoré","10 24m 15.48s S, 65 19m 58.62s W",76857-000
RO,NOVA MAMORE,POSTO DE SAUDE JACINOPOLIS,AV MARECHAL RONDON,3560,CENTRO,"AV MARECHAL RONDON, CENTRO, NOVA MAMORE, RO, BRASIL",-13.12311,-60.54471,"Avenida Marechal Rondon, 76993-000, Colorado do Oeste","13 7m 23.196s S, 60 32m 40.956s W",76993-000
RO,NOVA MAMORE,CENTRO DE SAUDE DIOLIRIO JOSE DE OLIVEIRA,LINHA 28 PROJETO SIDNEY GIRAO,S/N,ZONA RURAL,"LINHA 28 PROJETO SIDNEY GIRAO, ZONA RURAL, NOVA MAMORE, RO, BRASIL",-10.42026,-65.32918,"Avenida Linha C, 28, 76857-000, Nova Mamoré","10 25m 12.936s S, 65 19m 45.048s W",76857-000
RO,NOVA MAMORE,CENTRO DE SAUDE MATUZALEM CELANTI,LINHA 20 PROJETO GIRAO,S/N,ZONA RURAL,"LINHA 20 PROJETO GIRAO, ZONA RURAL, NOVA MAMORE, RO, BRASIL",-10.42026,-65.32925,"Avenida Linha C, 20, 76857-000, Nova Mamoré","10 25m 12.936s S, 65 19m 45.3s W",76857-000
RO,NOVA MAMORE,POSTO DE SAUDE PROCIDONIO GOMES DE AQUINO,3 LINHA DO RIBEIRAO,S/N,ZONA RURAL,"3 LINHA DO RIBEIRAO, ZONA RURAL, NOVA MAMORE, RO, BRASIL",-10.42035,-65.3294,"Avenida Linha C, 3, 76857-000, Nova Mamoré","10 25m 13.26s S, 65 19m 45.84s W",76857-000
RO,NOVA UNIAO,UNIDADE BASICA DE SAUDE SETOR I,RUA DUQUE DE CAXIAS,1203,SETOR 2,"RUA DUQUE DE CAXIAS, SETOR 2, NOVA UNIAO, RO, BRASIL",-10.91428,-62.55377,"Rua Duque de Caxias, 76924-000, Nova União","10 54m 51.408s S, 62 33m 13.572s W",76924-000
RO,NOVA UNIAO,HOSPITAL MUNICIPAL EXPEDITO GONCALVEZ FERREIRA,RUA MACHADO DE ASSIS,S/N,SETOR 02,"RUA MACHADO DE ASSIS, SETOR 02, NOVA UNIAO, RO, BRASIL",-10.91327,-62.55944,"Rua Machado de Assís, 76924-000, Nova União","10 54m 47.772s S, 62 33m 33.984s W",76924-000
RO,NOVA UNIAO,UNIDADE BASICA DE SAUDE MARIA LUIZA,RUA DUQUE DE CAXIAS,1203,SETOR I,"RUA DUQUE DE CAXIAS, SETOR I, NOVA UNIAO, RO, BRASIL",-10.91428,-62.55377,"Rua Duque de Caxias, 76924-000, Nova União","10 54m 51.408s S, 62 33m 13.572s W",76924-000
RO,NOVO HORIZONTE DO OESTE,CENTRO DE SAUDE MIGRANTINOPOLIS,RUA 7 DE SETEMBRO,999,DISTRITO,"RUA 7 DE SETEMBRO, DISTRITO, NOVO HORIZONTE DO OESTE, RO, BRASIL",-11.72652,-62.1389,"Rua Dois, 7, 76956-000, Novo Horizonte do Oeste","11 43m 35.472s S, 62 8m 20.04s W",76956-000
RO,NOVO HORIZONTE DO OESTE,CENTRO DE SAUDE NOVO HORIZONTE,RUA CARLOS GOMES,S/N,CENTRO,"RUA CARLOS GOMES, CENTRO, NOVO HORIZONTE DO OESTE, RO, BRASIL",-11.70825,-61.99806,"Rua Carlos Gomes, 76956-000, Novo Horizonte do Oeste","11 42m 29.7s S, 61 59m 53.016s W",76956-000
RO,OURO PRETO DO OESTE,PSF 8 LIBERDADE,RUA D PEDRO II,S/N,CENTRO,"RUA D PEDRO II, CENTRO, OURO PRETO DO OESTE, RO, BRASIL",-10.71144,-62.26026,"Rua Dom Pedro II, 76920-000, Ouro Preto do Oeste","10 42m 41.184s S, 62 15m 36.936s W",76920-000
RO,OURO PRETO DO OESTE,PSF 3 AEROPORTO 1,JARDIM AEROPORTO,999999,AEROPORTO,"JARDIM AEROPORTO, AEROPORTO, OURO PRETO DO OESTE, RO, BRASIL",-10.73119,-62.2499,"Jardim Aeroporto, Ouro Preto do Oeste","10 43m 52.284s S, 62 14m 59.64s W",
RO,OURO PRETO DO OESTE,PSF GRANDE OURO PRETO,AV DANIEL COMBONI,S/N,CENTRO,"AV DANIEL COMBONI, CENTRO, OURO PRETO DO OESTE, RO, BRASIL",-10.72081,-62.25583,"Avenida Daniel Comboni, Ouro Preto do Oeste","10 43m 14.916s S, 62 15m 20.988s W",
RO,OURO PRETO DO OESTE,PSF 1 JARDIM NOVO ESTADO,RUA D PEDRO II,S/N,CENTRO,"RUA D PEDRO II, CENTRO, OURO PRETO DO OESTE, RO, BRASIL",-10.71144,-62.26026,"Rua Dom Pedro II, 76920-000, Ouro Preto do Oeste","10 42m 41.184s S, 62 15m 36.936s W",76920-000
RO,OURO PRETO DO OESTE,CENTRO DE SAUDE OURO PRETO,AV DANIEL COMBONI,S/N,J TROPICAL,"AV DANIEL COMBONI, J TROPICAL, OURO PRETO DO OESTE, RO, BRASIL",-10.71834,-62.25272,"Avenida Daniel Comboni, 76920-000, Ouro Preto do Oeste","10 43m 6.024s S, 62 15m 9.792s W",76920-000
RO,OURO PRETO DO OESTE,PSF RURAL LH 81,RUA PE ADOLFO RHOL,S/N,BELA FLORESTA,"RUA PE ADOLFO RHOL, BELA FLORESTA, OURO PRETO DO OESTE, RO, BRASIL",-10.72773,-62.25963,"Rua Padre Adolpho Rohl, 76920-000, Ouro Preto do Oeste","10 43m 39.828s S, 62 15m 34.668s W",76920-000
RO,OURO PRETO DO OESTE,CENTRO DE SAUDE RONDOMINAS,DISTRITO RONDOMINAS,0,CENTRO,"DISTRITO RONDOMINAS, CENTRO, OURO PRETO DO OESTE, RO, BRASIL",-10.71178,-62.25521,Ouro Preto do Oeste,"10 42m 42.408s S, 62 15m 18.756s W",
RO,OURO PRETO DO OESTE,PSF 7 JARDIM TROPICAL,AV DANIEL COMBONI,621,CENTRO,"AV DANIEL COMBONI, CENTRO, OURO PRETO DO OESTE, RO, BRASIL",-10.72081,-62.25583,"Avenida Daniel Comboni, Ouro Preto do Oeste","10 43m 14.916s S, 62 15m 20.988s W",
RO,OURO PRETO DO OESTE,CENTRO DE SAUDE BOA ESPERANCA,RUA ARY PINHEIRO,S/N,CENTRO,"RUA ARY PINHEIRO, CENTRO, OURO PRETO DO OESTE, RO, BRASIL",-10.71783,-62.26487,"Rua Isabel Pinheiro, Ouro Preto do Oeste","10 43m 4.188s S, 62 15m 53.532s W",
RO,OURO PRETO DO OESTE,CENTRO DE SAUDE COHAB,AV JORGE TEIXEIRA,S/N,CENTRO,"AV JORGE TEIXEIRA, CENTRO, OURO PRETO DO OESTE, RO, BRASIL",-10.70916,-62.26203,"Avenida Jorge Teixeira, 76920-000, Ouro Preto do Oeste","10 42m 32.976s S, 62 15m 43.308s W",76920-000
RO,OURO PRETO DO OESTE,PSF 9 UNIAO,AV DANIEL COMBONI,621,CENTRO,"AV DANIEL COMBONI, CENTRO, OURO PRETO DO OESTE, RO, BRASIL",-10.72081,-62.25583,"Avenida Daniel Comboni, Ouro Preto do Oeste","10 43m 14.916s S, 62 15m 20.988s W",
RO,OURO PRETO DO OESTE,CENTRO DE SAUDE BELA FLORESTA,RUA PADRE ADOLFO ROHL,S/N,BELA FLORESTA,"RUA PADRE ADOLFO ROHL, BELA FLORESTA, OURO PRETO DO OESTE, RO, BRASIL",-10.72773,-62.25963,"Rua Padre Adolpho Rohl, 76920-000, Ouro Preto do Oeste","10 43m 39.828s S, 62 15m 34.668s W",76920-000
RO,OURO PRETO DO OESTE,CENTRO DE SAUDE CARLOS CHAGAS,R D PEDRO II,386,CENTRO,"R D PEDRO II, CENTRO, OURO PRETO DO OESTE, RO, BRASIL",-10.71144,-62.26026,"Rua Dom Pedro II, 76920-000, Ouro Preto do Oeste","10 42m 41.184s S, 62 15m 36.936s W",76920-000
RO,OURO PRETO DO OESTE,CENTRO DE SAUDE ANA NERY,RUA ARY PINHEIRO,S/N,J AEROPORTO,"RUA ARY PINHEIRO, J AEROPORTO, OURO PRETO DO OESTE, RO, BRASIL",-10.73767,-62.24445,"Rua S J, 76920-000, Ouro Preto do Oeste","10 44m 15.612s S, 62 14m 40.02s W",76920-000
RO,OURO PRETO DO OESTE,CASA DE DETENCAO DE OURO PRETO DOESTE,RUA PE ADOLFO RHOL,793,BANDEIRANTES,"RUA PE ADOLFO RHOL, BANDEIRANTES, OURO PRETO DO OESTE, RO, BRASIL",-10.72528,-62.26161,"Rua Padre Adolpho Rohl, Ouro Preto do Oeste","10 43m 31.008s S, 62 15m 41.796s W",
RO,OURO PRETO DO OESTE,PSF 5 SETOR INDUSTRIAL,AV 15 DE NOVEMBRO,S/N,CENTRO,"AV 15 DE NOVEMBRO, CENTRO, OURO PRETO DO OESTE, RO, BRASIL",-10.71895,-62.25763,"Avenida XV de Novembro, Ouro Preto do Oeste","10 43m 8.22s S, 62 15m 27.468s W",
RO,PARECIS,PSF RURAL,RUA JUDITE JESUS DE OLIVEIRA,412,CENTRO,"RUA JUDITE JESUS DE OLIVEIRA, CENTRO, PARECIS, RO, BRASIL",-8.96328,-48.15877,"Rua O.R. de Oliveira, 77714-000, Bom Jesus do Tocantins","8 57m 47.808s S, 48 9m 31.572s W",77714-000
RO,PARECIS,HOSPITAL DE PEQUENO PORTE,RUA JUDITE JESUS DE OLIVEIRA,412,CENTRO,"RUA JUDITE JESUS DE OLIVEIRA, CENTRO, PARECIS, RO, BRASIL",-8.96328,-48.15877,"Rua O.R. de Oliveira, 77714-000, Bom Jesus do Tocantins","8 57m 47.808s S, 48 9m 31.572s W",77714-000
RO,PARECIS,UNIDADE DE SAUDE DA FAMILIA DE PARECIS 02 PSF DO LAURO,AV CARLOS GOMES,212,CENTRO,"AV CARLOS GOMES, CENTRO, PARECIS, RO, BRASIL",-8.7609,-63.90111,"Rua Carlos Gomes, 76801, 76804, Porto Velho","8 45m 39.24s S, 63 54m 3.996s W",76801
RO,PARECIS,PSF URBANO APOLINARIO MANOEL DA CRUZ,AVENIDA BEIJA FLOR,S/N,JARDIM QUEILA,"AVENIDA BEIJA FLOR, JARDIM QUEILA, PARECIS, RO, BRASIL",-2.91177,-41.73499,"Rua Beija Flor Jardim dos Pássaros, 64205, Parnaíba","2 54m 42.372s S, 41 44m 5.964s W",64205
RO,PIMENTA BUENO,POSTO DE SAUDE CANAA,LINHA 10,S/N,ZONA RURAL,"LINHA 10, ZONA RURAL, PIMENTA BUENO, RO, BRASIL",-11.68435,-61.17912,Pimenta Bueno,"11 41m 3.66s S, 61 10m 44.832s W",
RO,PIMENTA BUENO,UNIDADE BASICA DE SAUDE PASTOR JONAS PIMENTA BUENO,RUA RICARDO FRANCO,S/N,JARDIM DAS OLIVEIRAS,"RUA RICARDO FRANCO, JARDIM DAS OLIVEIRAS, PIMENTA BUENO, RO, BRASIL",-11.67315,-61.19587,"Rua Ricardo Franco, 76970-000, Pimenta Bueno","11 40m 23.34s S, 61 11m 45.132s W",76970-000
RO,PIMENTA BUENO,UBS MADRE TEREZA DE CALCUTA PIMENTA BUENO,RUA PINHEIRO MACHADO,316,PIONEIROS,"RUA PINHEIRO MACHADO, PIONEIROS, PIMENTA BUENO, RO, BRASIL",-11.67217,-61.18398,"Rua Pinheiro Machado, 76970-000, Pimenta Bueno","11 40m 19.812s S, 61 11m 2.328s W",76970-000
RO,PIMENTA BUENO,UNIDADE BASICA DE SAUDE FREI SILVESTRE PIMENTA BUENO,AV VITORIA,1072,NOVA PIMENTA,"AV VITORIA, NOVA PIMENTA, PIMENTA BUENO, RO, BRASIL",-11.68581,-61.15942,"Avenida Vitória, 76970-000, Pimenta Bueno","11 41m 8.916s S, 61 9m 33.912s W",76970-000
RO,PIMENTA BUENO,UBS PASTOR ISMAELINO SALVIANO DE MATOS,RUA PROJETADA,200,AEROPORTO,"RUA PROJETADA, AEROPORTO, PIMENTA BUENO, RO, BRASIL",-10.20826,-63.82361,"Rua Pimenta Bueno, 76880-000, Buritis","10 12m 29.736s S, 63 49m 24.996s W",76880-000
RO,PIMENTA BUENO,UBS MAURA FERREIRA,SEBASTIAO SOARES MELO,391,TRIANGULO VERDE,"SEBASTIAO SOARES MELO, TRIANGULO VERDE, PIMENTA BUENO, RO, BRASIL",-11.69471,-61.17199,"Rua Sebastião Soares Melo, 76970-000, Pimenta Bueno","11 41m 40.956s S, 61 10m 19.164s W",76970-000
RO,PIMENTA BUENO,ALA DE DETENCAO DE PIMENTA BUENO,RUA COSTA MARQUES,260,PIONEIROS,"RUA COSTA MARQUES, PIONEIROS, PIMENTA BUENO, RO, BRASIL",-11.67356,-61.18448,"Rua Costa Marques, 76970-000, Pimenta Bueno","11 40m 24.816s S, 61 11m 4.128s W",76970-000
RO,PIMENTEIRAS DO OESTE,UNIDADE BASICA DE SAUDE JUSTINO MACIEL LEITE,RIO GRANDE DO SUL,S/N,CENTRO,"RIO GRANDE DO SUL, CENTRO, PIMENTEIRAS DO OESTE, RO, BRASIL",-13.48158,-61.04858,"Rua Rio Grande do Sul, 76999-000, Pimenteiras do Oeste","13 28m 53.688s S, 61 2m 54.888s W",76999-000
RO,PIMENTEIRAS DO OESTE,HOSPITAL DE PEQUENO PORTE JOAO CANCIO FERNANDES LEITE,FRANCISCO MENDES NERY,983,CENTRO,"FRANCISCO MENDES NERY, CENTRO, PIMENTEIRAS DO OESTE, RO, BRASIL",-13.48171,-61.04479,"Rua Francisco Mendes Nery, 76999-000, Pimenteiras do Oeste","13 28m 54.156s S, 61 2m 41.244s W",76999-000
RO,PORTO VELHO,UNIDADE DE SAUDE DA FAMILIA FORTALEZA DO ABUNA,FORTALEZA DO ABUNA BR 364 SENTIDO ACRE,S/N,DIST FORTALEZA DO AB,"FORTALEZA DO ABUNA BR 364 SENTIDO ACRE, DIST FORTALEZA DO AB, PORTO VELHO, RO, BRASIL",-9.68176,-65.08651,"BR-364, 76812, 76840, 76842, 76843, 76847, 76848, 78914, Porto Velho","9 40m 54.336s S, 65 5m 11.436s W",76812
RO,PORTO VELHO,UNIDADE DE SAUDE DA FAMILIA MARIA N DA SILVA,PAULISTA BAIXO MADEIRA,70,DISTRITO NAZARE,"PAULISTA BAIXO MADEIRA, DISTRITO NAZARE, PORTO VELHO, RO, BRASIL",-8.77051,-63.90818,"Rua Madeira Mamoré, 78916-650, Porto Velho","8 46m 13.836s S, 63 54m 29.448s W",78916-650
RO,PORTO VELHO,P S AGROVILA NOVA ALIANCA,AV CALAMA ITACOA,4008,EMBRATEL,"AV CALAMA ITACOA, EMBRATEL, PORTO VELHO, RO, BRASIL",-8.74816,-63.88322,"Avenida Calama, 76820, 78902, 78904, 78908, Porto Velho","8 44m 53.376s S, 63 52m 59.592s W",76820
RO,PORTO VELHO,UNIDADE DE SAUDE DA FAMILIA BENJAMIM SILVA,CALAMA,S/N,DISTRITO CALAMA,"CALAMA, DISTRITO CALAMA, PORTO VELHO, RO, BRASIL",-8.74502,-63.86863,"Avenida Calama, Porto Velho","8 44m 42.072s S, 63 52m 7.068s W",
RO,PORTO VELHO,CENTRO DE SAUDE MAURICIO BUSTANI,AV JORGE TEIXEIRA,S/N,LIBERDADE,"AV JORGE TEIXEIRA, LIBERDADE, PORTO VELHO, RO, BRASIL",-8.753666699999998,-63.8872366,"Avenida Jorge Teixeira, São Cristóvão, Porto Velho, Região Geográfica Imediata de Porto Velho, Região Geográfica Intermediária de Porto Velho, Rondônia, Região Norte, 76821-002, Brasil","8 45m 13.2001s S, 63 53m 14.0518s W",76821-002
RO,PORTO VELHO,UNIDADE DE SAUDE DA FAMILIA VISTA ALEGRE DO ABUNA,JOAO LEANDRO BARBOSA COM JOAO BARTOLOSO,S/N,DIST VISTA ALEGRE DO,"JOAO LEANDRO BARBOSA COM JOAO BARTOLOSO, DIST VISTA ALEGRE DO, PORTO VELHO, RO, BRASIL",-9.65966,-65.73205,"Avenida João Leandro Barbosa, 76843-000, Porto Velho","9 39m 34.776s S, 65 43m 55.38s W",76843-000
RO,PORTO VELHO,UNIDADE DE SAUDE DA FAMILIA MARIA CAMELO DE OLIVEIRA,ESTRADA DA PENAL LINHA 28 AO LADO DA ASSOCIACAO,S/N,ZONA RURAL,"ESTRADA DA PENAL LINHA 28 AO LADO DA ASSOCIACAO, ZONA RURAL, PORTO VELHO, RO, BRASIL",-8.73941,-63.86975,"Estrada da Penal, Porto Velho","8 44m 21.876s S, 63 52m 11.1s W",
RO,PORTO VELHO,UNIDADE DE SAUDE DA FAMILIA AGENOR DE CARVALHO PORTO VELHO,RUA VICTO FERREIRA MANAHIBA,1209,AGENOR DE CARVALHO,"RUA VICTO FERREIRA MANAHIBA, AGENOR DE CARVALHO, PORTO VELHO, RO, BRASIL",-8.76296,-63.86366,"Rua Victor Ferreira Manahiba, 76820, Porto Velho","8 45m 46.656s S, 63 51m 49.176s W",76820
RO,PORTO VELHO,UNIDADE DE SAUDE DA FAMILIA NOVA FLORESTA,RUA JOAO PAULO I COM CAMPOS SALES,S/N,NOVA HORIZONTE,"RUA JOAO PAULO I COM CAMPOS SALES, NOVA HORIZONTE, PORTO VELHO, RO, BRASIL",-8.80183,-63.89771,"Rua João Paulo I, 76810, 76812, Porto Velho","8 48m 6.588s S, 63 53m 51.756s W",76810
RO,PORTO VELHO,UNIDADE DE SAUDE DA FAMILIA OSVALDO PIANA,AV CAMPOS SALES AO LADO DA ESCOLA PAD CHIQUINHO,858,AREAL,"AV CAMPOS SALES AO LADO DA ESCOLA PAD CHIQUINHO, AREAL, PORTO VELHO, RO, BRASIL",-8.77312,-63.89955,"Avenida Campos Salles, 76804, 78916, Porto Velho","8 46m 23.232s S, 63 53m 58.38s W",76804
RO,PORTO VELHO,POSTO DE SAUDE DE MORRINHOS,BR 319 SENTIDO HUMAITA KM 24,4008,DISTRITO MORRINHOS,"BR 319 SENTIDO HUMAITA KM 24, DISTRITO MORRINHOS, PORTO VELHO, RO, BRASIL",-8.76085,-63.8857,"Avenida Governador Jorge Teixeira, 319, 78915-160, Porto Velho","8 45m 39.06s S, 63 53m 8.52s W",78915-160
RO,PORTO VELHO,UNIDADE DE SAUDE DA FAMILIA CALADINHO,RUA TANCREDO NEVES AO LADO DE ESCOLA,4752,CALADINHO,"RUA TANCREDO NEVES AO LADO DE ESCOLA, CALADINHO, PORTO VELHO, RO, BRASIL",-8.79924,-63.88185,"Rua Tancredo Neves, 76808, 78913, Porto Velho","8 47m 57.264s S, 63 52m 54.66s W",76808
RO,PORTO VELHO,UNIDADE DE SAUDE DA FAMILIA MARIANA,ROSALINA GOMES,9900,MARIANA,"ROSALINA GOMES, MARIANA, PORTO VELHO, RO, BRASIL",-8.7714689,-63.8207603,"Rua Rosalina Gomes, Loteamento Parque Amazônia, Mariana, Porto Velho, Região Geográfica Imediata de Porto Velho, Região Geográfica Intermediária de Porto Velho, Rondônia, Região Norte, 76829-346, Brasil","8 46m 17.288s S, 63 49m 14.7371s W",76829-346
RO,PORTO VELHO,UNIDADE DE SAUDE DA FAMILIA CASTANHEIRAS,PAU FERRO,878,CASTANHEIRA,"PAU FERRO, CASTANHEIRA, PORTO VELHO, RO, BRASIL",-8.791277099999999,-63.86927610000001,"Rua Pau Ferro, Castanheira, Porto Velho, Região Geográfica Imediata de Porto Velho, Região Geográfica Intermediária de Porto Velho, Rondônia, Região Norte, 76812-241, Brasil","8 47m 28.5976s S, 63 52m 9.39396s W",76812-241
RO,PORTO VELHO,POSTO DE SAUDE DA PENITENCIARIA FEDERAL EM PORTO VELHO RO,ROD BR 364 SITIO BOA ESPERANCA L 13 G13 A KM 44,44,ZORA RUAL,"ROD BR 364 SITIO BOA ESPERANCA L 13 G13 A KM 44, ZORA RUAL, PORTO VELHO, RO, BRASIL",-8.72141,-63.88001,"Rua Augusto dos Anjos, 13, 76812, Porto Velho","8 43m 17.076s S, 63 52m 48.036s W",76812
RO,PORTO VELHO,PS LAGO DO CUNIA,DISTRITO LAGO DO CUNIA,1,BAIXO MADEIRA,"DISTRITO LAGO DO CUNIA, BAIXO MADEIRA, PORTO VELHO, RO, BRASIL",-8.79962,-63.8738,"Rua do Contra Baixo, 76811-334, Porto Velho","8 47m 58.632s S, 63 52m 25.68s W",76811-334
RO,PORTO VELHO,UNIDADE DE SAUDE DA FAMILIA RIO DAS GARCAS,RIO DAS GARCAS BR 364 KM SENTIDO ACRE ESTRADA VICINAL,S/N,DISTRITO RIO DAS GAR,"RIO DAS GARCAS BR 364 KM SENTIDO ACRE ESTRADA VICINAL, DISTRITO RIO DAS GAR, PORTO VELHO, RO, BRASIL",-8.72097,-63.88053,"Rua Rio das Garças, 364, 76822-530, Porto Velho","8 43m 15.492s S, 63 52m 49.908s W",76822-530
RO,PORTO VELHO,UNIDADE DE SAUDE DA FAMILIA JACY PARANA,SEBASTIAO GOMES NOVA JACY SENTIDO ACRE,753,DISTRITO JACY PARANA,"SEBASTIAO GOMES NOVA JACY SENTIDO ACRE, DISTRITO JACY PARANA, PORTO VELHO, RO, BRASIL",-8.76499,-63.87954,"Rua Jacy Paraná, 76820, 78906, 78910, Porto Velho","8 45m 53.964s S, 63 52m 46.344s W",76820
RO,PORTO VELHO,UNIDADE DE SAUDE DA FAMILIA RONALDO ARAGAO,ESTRADA DO BELMONT,2044,NACIONAL,"ESTRADA DO BELMONT, NACIONAL, PORTO VELHO, RO, BRASIL",-8.7324732,-63.907754700000005,"Estrada do Belmont, Invasão Portelinha, Nacional, Porto Velho, Região Geográfica Imediata de Porto Velho, Região Geográfica Intermediária de Porto Velho, Rondônia, Região Norte, 78903-711, Brasil","8 43m 56.9035s S, 63 54m 27.9169s W",78903-711
RO,PORTO VELHO,UNIDADE DE SAUDE DA FAMILIA NOVA CALIFORNIA,RUA ITAPOA BR 364 SENTIDO ACRE,S/N,DIST NOVA CALIFONIA,"RUA ITAPOA BR 364 SENTIDO ACRE, DIST NOVA CALIFONIA, PORTO VELHO, RO, BRASIL",-8.78377,-63.89588,"BR-364, 76806-679, Porto Velho","8 47m 1.572s S, 63 53m 45.168s W",76806-679
RO,PORTO VELHO,UNIDADE DE SAUDE DA FAMILIA ABUNA,ABUNA BR 364 SENTIDO ACRE,S/N,DISTRITO ABUNA,"ABUNA BR 364 SENTIDO ACRE, DISTRITO ABUNA, PORTO VELHO, RO, BRASIL",-9.68176,-65.08651,"BR-364, 76812, 76840, 76842, 76843, 76847, 76848, 78914, Porto Velho","9 40m 54.336s S, 65 5m 11.436s W",76812
RO,PORTO VELHO,UNIDADE DE SAUDE DA FAMILIA DE EXTREMA,EXTREMA SENTIDO BR 364 SENTIDO ACRE,S/N,DISTRITO EXTREMA,"EXTREMA SENTIDO BR 364 SENTIDO ACRE, DISTRITO EXTREMA, PORTO VELHO, RO, BRASIL",-9.68176,-65.08651,"BR-364, 76812, 76840, 76842, 76843, 76847, 76848, 78914, Porto Velho","9 40m 54.336s S, 65 5m 11.436s W",76812
RO,PORTO VELHO,UNIDADE DE SAUDE DA FAMILIA ERNANDE C COUTINHO,AV MAMORE AO LADO DAS ESC MAE ESPERANCA E DACY RIB,5002,ESP DA COMUNIDADE,"AV MAMORE AO LADO DAS ESC MAE ESPERANCA E DACY RIB, ESP DA COMUNIDADE, PORTO VELHO, RO, BRASIL",,,,,
RO,PORTO VELHO,UNIDADE DE SAUDE DA FAMILIA NOVA MUTUM,AV GIRAU COM ABUNA BR 364 SENTIDO ACRE,S/N,DIST MUTUM PARANA,"AV GIRAU COM ABUNA BR 364 SENTIDO ACRE, DIST MUTUM PARANA, PORTO VELHO, RO, BRASIL",-9.76944,-66.35524,"Rua Mutum Paraná, 76847-000, Porto Velho","9 46m 9.984s S, 66 21m 18.864s W",76847-000
RO,PORTO VELHO,UNIDADE DE SAUDE DA FAMILIA RIO PARDO,VILA RIO PARDO,S/N,ASSENT RIO PARDO,"VILA RIO PARDO, ASSENT RIO PARDO, PORTO VELHO, RO, BRASIL",-8.77316,-63.89479,"Beco Rio de Janeiro, 76804-346, Porto Velho","8 46m 23.376s S, 63 53m 41.244s W",76804-346
RO,PORTO VELHO,UNIDADE DE SAUDE DA FAMILIA JOANA DARC,ASSENTAMENTO JOANA DARC BR 319 VILA FRANCISCANA,S/N,ZONA RURAL,"ASSENTAMENTO JOANA DARC BR 319 VILA FRANCISCANA, ZONA RURAL, PORTO VELHO, RO, BRASIL",-8.74208,-63.91384,"Beco Gravatal, 319, 76801-745, Porto Velho","8 44m 31.488s S, 63 54m 49.824s W",76801-745
RO,PORTO VELHO,PS SAO MIGUEL,SAO MIGUEL,4008,SAO MIGUEL BAIXO MAD,"SAO MIGUEL, SAO MIGUEL BAIXO MAD, PORTO VELHO, RO, BRASIL",-8.78897,-63.87241,"Rua São Miguel, Porto Velho","8 47m 20.292s S, 63 52m 20.676s W",
RO,PORTO VELHO,PS DEMARCACAO,DEMARCACAO,S/N,RIO MACHADO BAIXO MA,"DEMARCACAO, RIO MACHADO BAIXO MA, PORTO VELHO, RO, BRASIL",-8.7776,-63.9101,"Rua Rio Machado, Porto Velho","8 46m 39.36s S, 63 54m 36.36s W",
RO,PORTO VELHO,UNIDADE DE SAUDE DA FAMILIA DR RENATO MEDEIROS,RUA MAGNO ASSOLINO,1456,CIDADE DO LOBO,"RUA MAGNO ASSOLINO, CIDADE DO LOBO, PORTO VELHO, RO, BRASIL",-8.80591,-63.88748,"Rua Magno Arsolino, 76810-468, Porto Velho","8 48m 21.276s S, 63 53m 14.928s W",76810-468
RO,PORTO VELHO,PS CACHOEIRA DO TEOTONIO PORTO VELHO,BR 364 SENTIDO ACRE ESTRADA VICINAL,S/N,CACHOEIRA DO TEOTONI,"BR 364 SENTIDO ACRE ESTRADA VICINAL, CACHOEIRA DO TEOTONI, PORTO VELHO, RO, BRASIL",-8.77718,-63.80722,"Rua Cachoeira do Itapemirim, Porto Velho","8 46m 37.848s S, 63 48m 25.992s W",
RO,PORTO VELHO,UNIDADE DE SAUDE DA FAMILIA SOCIALISTA,MANE GARRINCHA AO LADO DA ESC ELENILSON NEGREIROS,S/N,SOCIALISTA,"MANE GARRINCHA AO LADO DA ESC ELENILSON NEGREIROS, SOCIALISTA, PORTO VELHO, RO, BRASIL",-8.76004,-63.82732,"Rua Mané Garrincha, 76829, 78910, 78912, Porto Velho","8 45m 36.144s S, 63 49m 38.352s W",76829
RO,PORTO VELHO,UNIDADE DE SAUDE DA FAMILIA SAO CARLOS,BAIXO MADEIRA,S/N,DISTRITO SAO CARLOS,"BAIXO MADEIRA, DISTRITO SAO CARLOS, PORTO VELHO, RO, BRASIL",-8.75915,-63.89271,"Rua Carlos Gomes, 76804, 78901, Porto Velho","8 45m 32.94s S, 63 53m 33.756s W",76804
RO,PORTO VELHO,UNIDADE DE SAUDE DA FAMILIA JOSE ADELINO DA SILVA,ORION AO LADO DO COMANDO DE POLICIA,56,ULISSES GUIMARAES,"ORION AO LADO DO COMANDO DE POLICIA, ULISSES GUIMARAES, PORTO VELHO, RO, BRASIL",-8.77481,-63.80266,"Rua Orion, 76813, Porto Velho","8 46m 29.316s S, 63 48m 9.576s W",76813
RO,PORTO VELHO,UNIDADE DE SAUDE DA FAMILIA DE SAO SEBASTIAO,CASTRO ALVES A0 LADO DA ESCOLA SEMENTE DO ARACA,5899,SAO SEBASTIAO 1,"CASTRO ALVES A0 LADO DA ESCOLA SEMENTE DO ARACA, SAO SEBASTIAO 1, PORTO VELHO, RO, BRASIL",-8.73866,-63.90815,"Rua Castro Alves, 76801, 78903, Porto Velho","8 44m 19.176s S, 63 54m 29.34s W",76801
RO,PORTO VELHO,UNIDADE DE SAUDE DA FAMILIA NOVO ENGENHO VELHO,BR 319 SENTIDO HUMAITA COM SAO SEBASTIAO,S/N,DIST SAO SEBASTIAO,"BR 319 SENTIDO HUMAITA COM SAO SEBASTIAO, DIST SAO SEBASTIAO, PORTO VELHO, RO, BRASIL",-8.74302,-63.91026,"BR-319, Porto Velho","8 44m 34.872s S, 63 54m 36.936s W",
RO,PORTO VELHO,UNIDADE DE SAUDE DA FAMILIA APONIA,RUA ANDREIA,5383,APONIA,"RUA ANDREIA, APONIA, PORTO VELHO, RO, BRASIL",-8.7417388,-63.8563311,"Rua Andréia, Aponiã, Porto Velho, Região Geográfica Imediata de Porto Velho, Região Geográfica Intermediária de Porto Velho, Rondônia, Região Norte, 76824-038, Brasil","8 44m 30.2597s S, 63 51m 22.792s W",76824-038
RO,PORTO VELHO,UNIDADE DE SAUDE DA FAMILIA PEDACINHO DE CHAO,AV TIRADENTES AO LADO CO COMANDO GERAL PM,3420,PADACINHO DE CHAO,"AV TIRADENTES AO LADO CO COMANDO GERAL PM, PADACINHO DE CHAO, PORTO VELHO, RO, BRASIL",,,,,
RO,PORTO VELHO,UNIDADE DE SAUDE DA FAMILIA SANTA RITA,REASENTAMENTO SANTA RITA,101,ZONA RURAL,"REASENTAMENTO SANTA RITA, ZONA RURAL, PORTO VELHO, RO, BRASIL",-9.76979,-66.36513,"Rua Santa Rita, Porto Velho","9 46m 11.244s S, 66 21m 54.468s W",
RO,PORTO VELHO,UNIDADE DE SAUDE DA FAMILIA UNIAO BANDEIRANTES,AV MARILDO CORDEIRO COM AIRTON SENNA,101,DIST UNIAO BANDEIRAN,"AV MARILDO CORDEIRO COM AIRTON SENNA, DIST UNIAO BANDEIRAN, PORTO VELHO, RO, BRASIL",-8.7817,-63.81733,"Rua Ayrton Senna, 76813-622, Porto Velho","8 46m 54.12s S, 63 49m 2.388s W",76813-622
RO,PORTO VELHO,CENTRO DE SAUDE AREAL DA FLORESTA PORTO VELHO,RUA CEPETIBA,S/N,AREAL DA FLORESTA,"RUA CEPETIBA, AREAL DA FLORESTA, PORTO VELHO, RO, BRASIL",-8.78007,-63.87964,"Rua da Juventude, Porto Velho","8 46m 48.252s S, 63 52m 46.704s W",
RO,PORTO VELHO,UNIDADE DE SAUDE DA FAMILIA VILA PRINCESA,BR 364 SENTIDO ACRE VILA PRINCESA,S/N,VILA PRINCESA,"BR 364 SENTIDO ACRE VILA PRINCESA, VILA PRINCESA, PORTO VELHO, RO, BRASIL",-8.77513,-63.89339,"Rua Princesa Isabel, Porto Velho","8 46m 30.468s S, 63 53m 36.204s W",
RO,PORTO VELHO,PS TERRA SANTA,DISTRITO DE TERRA SANTA,0,ZONA RURAL,"DISTRITO DE TERRA SANTA, ZONA RURAL, PORTO VELHO, RO, BRASIL",-8.76654,-63.89618,"Santa Bárbara, Porto Velho","8 45m 59.544s S, 63 53m 46.248s W",
RO,PORTO VELHO,PS NOVA ESPERANCA,DISTRITO NOVA ESPERANCA,S/N,ZONA RURAL,"DISTRITO NOVA ESPERANCA, ZONA RURAL, PORTO VELHO, RO, BRASIL",-8.71974,-63.87869,"Nova Esperança, Porto Velho","8 43m 11.064s S, 63 52m 43.284s W",
RO,PORTO VELHO,UNIDADE DE SAUDE DA FAMILIA JOSE GOMES FERREIRA,CUJUBIM GRANDE,S/N,DISTRITO CUJUBIM GRA,"CUJUBIM GRANDE, DISTRITO CUJUBIM GRA, PORTO VELHO, RO, BRASIL",-10.20762,-63.8277,"Rua Cujubim & Avenida Porto Velho, 76880, Buritis","10 12m 27.432s S, 63 49m 39.72s W",76880
RO,PORTO VELHO,PS VALE DO JAMARY,AV CALAMA VALE DO JAMARY,4008,EMBRATEL,"AV CALAMA VALE DO JAMARY, EMBRATEL, PORTO VELHO, RO, BRASIL",-9.85351,-62.17577,"Rua Porto Velho, 76867-000, Vale do Anari","9 51m 12.636s S, 62 10m 32.772s W",76867-000
RO,PORTO VELHO,PS SAO JOSE,GLEBA RIO PRETO KM 9,4008,BAIXO MADEIRA RIO MA,"GLEBA RIO PRETO KM 9, BAIXO MADEIRA RIO MA, PORTO VELHO, RO, BRASIL",-8.73537,-63.87563,"Rio Madeira, Porto Velho","8 44m 7.332s S, 63 52m 32.268s W",
RO,PORTO VELHO,POSTO DE SAUDE PALMARES KM12,BR 319 SENTIDO HUMAITA KMM12,4008,DISTRITO MORRINHOS,"BR 319 SENTIDO HUMAITA KMM12, DISTRITO MORRINHOS, PORTO VELHO, RO, BRASIL",-8.76085,-63.8857,"Avenida Governador Jorge Teixeira, 319, 78915-160, Porto Velho","8 45m 39.06s S, 63 53m 8.52s W",78915-160
RO,PORTO VELHO,PS PAPAGAIOS,PAPAGAIOS,S/N,BAIXO MADEIRA,"PAPAGAIOS, BAIXO MADEIRA, PORTO VELHO, RO, BRASIL",-8.77051,-63.90818,"Rua Madeira Mamoré, 78916-650, Porto Velho","8 46m 13.836s S, 63 54m 29.448s W",78916-650
RO,PORTO VELHO,PS ENG LUIZ GONZAGA,AV CALAMA DISTDE TERRA CAIDA,4008,EMBRATEL,"AV CALAMA DISTDE TERRA CAIDA, EMBRATEL, PORTO VELHO, RO, BRASIL",-8.74816,-63.88322,"Avenida Calama, 76820, 78902, 78904, 78908, Porto Velho","8 44m 53.376s S, 63 52m 59.592s W",76820
RO,PORTO VELHO,SERVICOS DE PRATICAS INTEGRATIVAS E COMPLEMENTARES EM SAUDE,ANTONIO LOURENCO PEREIRA LIMA,2360,EMBRATEL,"ANTONIO LOURENCO PEREIRA LIMA, EMBRATEL, PORTO VELHO, RO, BRASIL",-8.743,-63.8809,"Rua Antônio Lacerda, 76821-038, Porto Velho","8 44m 34.8s S, 63 52m 51.24s W",76821-038
RO,PORTO VELHO,UNIDADE DE SAUDE DA FAMILIA DE ALIANCA,ESTRADA DA PENAL AO LADO DA ESC CHIQUILITO ERSE,S/N,ESTRADA DA PENAL,"ESTRADA DA PENAL AO LADO DA ESC CHIQUILITO ERSE, ESTRADA DA PENAL, PORTO VELHO, RO, BRASIL",-8.73941,-63.86975,"Estrada da Penal, Porto Velho","8 44m 21.876s S, 63 52m 11.1s W",
RO,PORTO VELHO,UNIDADE DE SAUDE DA FAMILIA SANTO ANTONIO,ESTRADA SANTO ANTONIO,61,TRIANGULO,"ESTRADA SANTO ANTONIO, TRIANGULO, PORTO VELHO, RO, BRASIL",-8.8064185,-63.9320317,"Estrada Santo Antônio, Triângulo, Porto Velho, Região Geográfica Imediata de Porto Velho, Região Geográfica Intermediária de Porto Velho, Rondônia, Região Norte, 76804-628, Brasil","8 48m 23.1066s S, 63 55m 55.3141s W",76804-628
RO,PORTO VELHO,UNIDADE DE SAUDE DA FAMILIA HAMILTON RAULINO GONDIN,JOSE AMADOR DOS REIS,3514,TANCREDO NEVES,"JOSE AMADOR DOS REIS, TANCREDO NEVES, PORTO VELHO, RO, BRASIL",-8.760019300000002,-63.83831850000001,"Rua José Amador Reis, Tancredo Neves, Porto Velho, Região Geográfica Imediata de Porto Velho, Região Geográfica Intermediária de Porto Velho, Rondônia, Região Norte, 78919-280, Brasil","8 45m 36.0695s S, 63 50m 17.9466s W",78919-280
RO,PORTO VELHO,POSTO DE SAUDE MANOEL AMORIM DE MATOS,RUA ANGICO,5030,COHAB FLORESTA,"RUA ANGICO, COHAB FLORESTA, PORTO VELHO, RO, BRASIL",-8.794063099999999,-63.8873164,"Rua Angico, Conceição, Porto Velho, Região Geográfica Imediata de Porto Velho, Região Geográfica Intermediária de Porto Velho, Rondônia, Região Norte, 76807-525, Brasil","8 47m 38.6272s S, 63 53m 14.339s W",76807-525
RO,PRESIDENTE MEDICI,CS POLONIA ROSSI JAVARINI PRESIDENTE MEDICE,RUA INDEPENDENCIA,2474,CENTRO,"RUA INDEPENDENCIA, CENTRO, PRESIDENTE MEDICI, RO, BRASIL",-11.1678,-61.90893,"Rua Independência, 76916-000, Presidente Médici","11 10m 4.08s S, 61 54m 32.148s W",76916-000
RO,PRESIDENTE MEDICI,C S MARIA DE FATIMA DAS CHAGAS BONFIM,RUA OTAVIO RODRIGUES DE MATOS,S/N,CENTRO,"RUA OTAVIO RODRIGUES DE MATOS, CENTRO, PRESIDENTE MEDICI, RO, BRASIL",-11.16915,-61.89832,"Rua Otávio Rodrigues de Matos, 76916-000, Presidente Médici","11 10m 8.94s S, 61 53m 53.952s W",76916-000
RO,PRESIDENTE MEDICI,U B S ERNANDES GONCALVES,RUA INDEPENDENCIA,S/N,ERNANDES GONCALVES,"RUA INDEPENDENCIA, ERNANDES GONCALVES, PRESIDENTE MEDICI, RO, BRASIL",-11.1678,-61.90893,"Rua Independência, 76916-000, Presidente Médici","11 10m 4.08s S, 61 54m 32.148s W",76916-000
RO,PRESIDENTE MEDICI,CSD NOVO RIACHUELO,DISTRITO,S/N,ZONA RURAL,"DISTRITO, ZONA RURAL, PRESIDENTE MEDICI, RO, BRASIL",-11.17084,-61.9061,Presidente Médici,"11 10m 15.024s S, 61 54m 21.96s W",
RO,PRESIDENTE MEDICI,POSTO SAUDE BNH,AV MACAPA,S/N,VITORIA REGIA,"AV MACAPA, VITORIA REGIA, PRESIDENTE MEDICI, RO, BRASIL",-11.1703,-61.90893,"Avenida Macapá, 76916-000, Presidente Médici","11 10m 13.08s S, 61 54m 32.148s W",76916-000
RO,PRESIDENTE MEDICI,PS CHICO MENDES I II III,6 LINHA ASSENTAMENTO CHICO MENDES 3,S/N,ZONA RURAL,"6 LINHA ASSENTAMENTO CHICO MENDES 3, ZONA RURAL, PRESIDENTE MEDICI, RO, BRASIL",,,,,
RO,PRESIDENTE MEDICI,CSD ESTRELA DE RONDONIA,RUA PARANA ESQUINA COM AVENIDA PE ROMOM,S/N,DISTRITO ESTRELA DE,"RUA PARANA ESQUINA COM AVENIDA PE ROMOM, DISTRITO ESTRELA DE, PRESIDENTE MEDICI, RO, BRASIL",-11.30491,-61.78329,"Rua Paraná, Presidente Médici","11 18m 17.676s S, 61 46m 59.844s W",
RO,PRESIDENTE MEDICI,HOSPITAL E MATERNIDADE EUFRASIA MARIA DA CONCEICAO,RUA OTAVIO RODRIGUES DE MATOS,1905,ERNANDES GONCALVES,"RUA OTAVIO RODRIGUES DE MATOS, ERNANDES GONCALVES, PRESIDENTE MEDICI, RO, BRASIL",-11.16915,-61.89832,"Rua Otávio Rodrigues de Matos, 76916-000, Presidente Médici","11 10m 8.94s S, 61 53m 53.952s W",76916-000
RO,PRESIDENTE MEDICI,CSD VILA CAMARGO,LINHA 2,S/N,ZONA RURAL,"LINHA 2, ZONA RURAL, PRESIDENTE MEDICI, RO, BRASIL",-11.17084,-61.9061,Presidente Médici,"11 10m 15.024s S, 61 54m 21.96s W",
RO,PRESIDENTE MEDICI,PS JOSE JAVARINI,BANDEIRA BRANCA,S/N,BR 364,"BANDEIRA BRANCA, BR 364, PRESIDENTE MEDICI, RO, BRASIL",-11.0793291,-61.919585,"Bandeira Branca, Vila Bandeira Branca, Presidente Médici, Região Geográfica Imediata de Ji-Paraná, Região Geográfica Intermediária de Ji-Paraná, Rondônia, Região Norte, Brasil","11 4m 45.5848s S, 61 55m 10.506s W",
RO,PRIMAVERA DE RONDONIA,UNIDADE BASICA DE SAUDE MANOEL DE LARA,RUA JOSE RODRIGUES,1675,CENTRO,"RUA JOSE RODRIGUES, CENTRO, PRIMAVERA DE RONDONIA, RO, BRASIL",-11.83244,-61.31744,"Rua José Rodrigues, 76976-000, Primavera de Rondônia","11 49m 56.784s S, 61 19m 2.784s W",76976-000
RO,PRIMAVERA DE RONDONIA,UBS DISTRITO DE QUERENCIA DO NORTE PRIMAVERA DE RONDONIA,AV COSTA E SILVA,S/N,ZONA RURAL,"AV COSTA E SILVA, ZONA RURAL, PRIMAVERA DE RONDONIA, RO, BRASIL",-10.56974,-63.61832,"Avenida Costa e Silva, 76887-000, Campo Novo de Rondônia","10 34m 11.064s S, 63 37m 5.952s W",76887-000
RO,RIO CRESPO,UNIDADE BASICA DE SAUDE EMILIO GAVIOLI,RUA SAO PAULO,1620,SETOR 02,"RUA SAO PAULO, SETOR 02, RIO CRESPO, RO, BRASIL",-23.57237,-46.77982,"Rua Geraldo Crespo, 05399-040, São Paulo","23 34m 20.532s S, 46 46m 47.352s W",05399-040
RO,ROLIM DE MOURA,UBS BOA ESPERANCA POLICLINICA,AV PARANA,5419,BOA ESPERANCA,"AV PARANA, BOA ESPERANCA, ROLIM DE MOURA, RO, BRASIL",-11.73671,-61.78391,"Avenida Paraná, 76940-000, Rolim de Moura","11 44m 12.156s S, 61 47m 2.076s W",76940-000
RO,ROLIM DE MOURA,UBS JARDIM TROPICAL,TRAVESSA SAFIRAS,4631,JARDIM TROPICAL,"TRAVESSA SAFIRAS, JARDIM TROPICAL, ROLIM DE MOURA, RO, BRASIL",-11.73204,-61.76588,"Travessa Safira, Rolim de Moura","11 43m 55.344s S, 61 45m 57.168s W",
RO,ROLIM DE MOURA,CASA DE PRISAO SEMI ABERTO ROLIM DE MOURA,RUA BARAO DE MELGACO,3507,PLANALTO,"RUA BARAO DE MELGACO, PLANALTO, ROLIM DE MOURA, RO, BRASIL",-11.71381,-61.77938,"Rua Barão de Melgaço, 76940-000, Rolim de Moura","11 42m 49.716s S, 61 46m 45.768s W",76940-000
RO,ROLIM DE MOURA,UBS CENTRO NORTE,AV SAO LUIZ,4217,CENTRO NORTE,"AV SAO LUIZ, CENTRO NORTE, ROLIM DE MOURA, RO, BRASIL",-11.71933,-61.77813,"Avenida São Luiz & Avenida Norte Sul, 76940, Rolim de Moura","11 43m 9.588s S, 61 46m 41.268s W",76940
RO,ROLIM DE MOURA,UBS MARIA DE LURDES FERREIRA ROCHA CIDADE ALTA,AV CECILIA MEIRELES,5728,CIDADE ALTA,"AV CECILIA MEIRELES, CIDADE ALTA, ROLIM DE MOURA, RO, BRASIL",-11.71858,-61.79936,"Avenida Cecília Meireles, 76940-000, Rolim de Moura","11 43m 6.888s S, 61 47m 57.696s W",76940-000
RO,ROLIM DE MOURA,UNIDADE DE SAUDE ALBERT SABIN REF HANSENIASE,AV FLORIANOPOLIS,5432,CENTRO,"AV FLORIANOPOLIS, CENTRO, ROLIM DE MOURA, RO, BRASIL",-11.72331,-61.77628,"Avenida Florianópolis, 76940-000, Rolim de Moura","11 43m 23.916s S, 61 46m 34.608s W",76940-000
RO,ROLIM DE MOURA,PRESIDIO DE ROLIM DE MOURA,RUA H,6399,CIDADE ALTA,"RUA H, CIDADE ALTA, ROLIM DE MOURA, RO, BRASIL",-11.71587,-61.79783,"Rua H, Rolim de Moura","11 42m 57.132s S, 61 47m 52.188s W",
RO,ROLIM DE MOURA,UBS ENI CORREIA DA SILVA NOVA ESTRELA,AVENIDA TANCREDO NEVES,2921,CENTRO,"AVENIDA TANCREDO NEVES, CENTRO, ROLIM DE MOURA, RO, BRASIL",-11.71856,-61.79786,"Rua Tancredo de A. Neves, 76940-000, Rolim de Moura","11 43m 6.816s S, 61 47m 52.296s W",76940-000
RO,ROLIM DE MOURA,CASA DE DETENCAO ROLIM DE MOURA,RUA JAMARI,5416,SAO CRISTOVAO,"RUA JAMARI, SAO CRISTOVAO, ROLIM DE MOURA, RO, BRASIL",-11.72975,-61.78578,"Rua Jamari, 76940-000, Rolim de Moura","11 43m 47.1s S, 61 47m 8.808s W",76940-000
RO,ROLIM DE MOURA,UBS ALBERT SABIN,AVENIDA FLORIANOPOLIS,5432,CENTRO,"AVENIDA FLORIANOPOLIS, CENTRO, ROLIM DE MOURA, RO, BRASIL",-11.72331,-61.77628,"Avenida Florianópolis, 76940-000, Rolim de Moura","11 43m 23.916s S, 61 46m 34.608s W",76940-000
RO,ROLIM DE MOURA,UBS JOSE FERREIRA MARTINS PLANALTO,RUA BARAO DE MELGACO,3581,PLANALTO,"RUA BARAO DE MELGACO, PLANALTO, ROLIM DE MOURA, RO, BRASIL",-11.71381,-61.77938,"Rua Barão de Melgaço, 76940-000, Rolim de Moura","11 42m 49.716s S, 61 46m 45.768s W",76940-000
RO,SANTA LUZIA D'OESTE,UNIDADE BASICA DE SAUDE DA FAMILIA DR AMAURI JOSE DA ROCHA,RUA SETE DE SETEMBRO,2320,CENTRO,"RUA SETE DE SETEMBRO, CENTRO, SANTA LUZIA D'OESTE, RO, BRASIL",-11.9065084,-61.78435129999999,"Rua Sete de Setembro, Centro, Santa Luzia D'Oeste, Santa Luzia d'Oeste, Região Geográfica Imediata de Cacoal, Região Geográfica Intermediária de Ji-Paraná, Rondônia, Região Norte, 76950-000, Brasil","11 54m 23.4302s S, 61 47m 3.66468s W",76950-000
RO,SANTA LUZIA D'OESTE,UNIDADE DE SAUDE DA FAMILIA,AV TANCREDO DE ALMEIDA NEVES,3571,CENTRO,"AV TANCREDO DE ALMEIDA NEVES, CENTRO, SANTA LUZIA D'OESTE, RO, BRASIL",-27.22788,-51.98404,"Rua Tancredo de Almeida Neves, Concórdia","27 13m 40.368s S, 51 59m 2.544s W",
RO,SANTA LUZIA D'OESTE,CADEIA PUBLICA DE SANTA LUZIA D OESTE,AVENIDA TANCREDO NEVES,2841,CENTRO,"AVENIDA TANCREDO NEVES, CENTRO, SANTA LUZIA D'OESTE, RO, BRASIL",-11.9084862,-61.77603320000001,"Avenida Tancredo Neves, Saúde, Santa Luzia D'Oeste, Santa Luzia d'Oeste, Região Geográfica Imediata de Cacoal, Região Geográfica Intermediária de Ji-Paraná, Rondônia, Região Norte, 76950-000, Brasil","11 54m 30.5503s S, 61 46m 33.7195s W",76950-000
RO,SAO FELIPE D'OESTE,UBS ESF SAO FELIPE,AVENIDA TANCREDO NEVES,783,CENTRO,"AVENIDA TANCREDO NEVES, CENTRO, SAO FELIPE D'OESTE, RO, BRASIL",-11.92989,-61.98526,"Rua Tancredo Neves, Alta Floresta d'Oeste","11 55m 47.604s S, 61 59m 6.936s W",
RO,SAO FELIPE D'OESTE,UNIDADE MISTA DE SAUDE DR ATALIBAL VICTOR FILHO,RUA RONALDO ARAGAO,S/N,CENTRO,"RUA RONALDO ARAGAO, CENTRO, SAO FELIPE D'OESTE, RO, BRASIL",-11.90685,-61.51293,São Felipe d'Oeste,"11 54m 24.66s S, 61 30m 46.548s W",
RO,SAO FELIPE D'OESTE,UBS NOVO PARAISO,RUA 05,S/N,NOVO PARAISO,"RUA 05, NOVO PARAISO, SAO FELIPE D'OESTE, RO, BRASIL",-11.90685,-61.51293,São Felipe d'Oeste,"11 54m 24.66s S, 61 30m 46.548s W",
RO,SAO FRANCISCO DO GUAPORE,UNIDADE BASICA DE SAUDE ROMANA ISABEL SILVA DE PAULA,RODOVIA RO 377 KM 16,0,ZONA RURAL,"RODOVIA RO 377 KM 16, ZONA RURAL, SAO FRANCISCO DO GUAPORE, RO, BRASIL",-12.06074,-63.57612,São Francisco do Guaporé,"12 3m 38.664s S, 63 34m 34.032s W",
RO,SAO FRANCISCO DO GUAPORE,UNIDADE BASICA DE SAUDE JUCEMAR MIGUEL,LINHA 04 KM 25,S/N,ZONA RURAL,"LINHA 04 KM 25, ZONA RURAL, SAO FRANCISCO DO GUAPORE, RO, BRASIL",-12.06074,-63.57612,São Francisco do Guaporé,"12 3m 38.664s S, 63 34m 34.032s W",
RO,SAO FRANCISCO DO GUAPORE,UNIDADE BASICA DE SAUDE ANESTINO DE ALMEIDA,RUA TIRADENTES,S/N,ALTO ALEGRE,"RUA TIRADENTES, ALTO ALEGRE, SAO FRANCISCO DO GUAPORE, RO, BRASIL",-12.06711,-63.56969,"Rua Tiradentes, São Francisco do Guaporé","12 4m 1.596s S, 63 34m 10.884s W",
RO,SAO FRANCISCO DO GUAPORE,UNIDADE BASICA DE SAUDE AUGUSTO RODRIGUES DOS SANTOS,RUA RONALDO ARAGAO,2801,CENTRO,"RUA RONALDO ARAGAO, CENTRO, SAO FRANCISCO DO GUAPORE, RO, BRASIL",-12.06204,-63.57005,"Rua Ronaldo Aragão, São Francisco do Guaporé","12 3m 43.344s S, 63 34m 12.18s W",
RO,SAO FRANCISCO DO GUAPORE,UNIDADE BASICA DE SAUDE SEBASTIAO LEITE DA SILVA,LINHA 06 KM 12,0,ZONA RURAL,"LINHA 06 KM 12, ZONA RURAL, SAO FRANCISCO DO GUAPORE, RO, BRASIL",-12.06074,-63.57612,São Francisco do Guaporé,"12 3m 38.664s S, 63 34m 34.032s W",
RO,SAO FRANCISCO DO GUAPORE,UNIDADE BASICA DE SAUDE OSMAR SILVA DA COSTA,BR 429 KM 75,0,ZONA RURAL,"BR 429 KM 75, ZONA RURAL, SAO FRANCISCO DO GUAPORE, RO, BRASIL",-12.05698,-63.52686,"BR-429, 76935-000, São Francisco do Guaporé","12 3m 25.128s S, 63 31m 36.696s W",76935-000
RO,SAO MIGUEL DO GUAPORE,UNIDADE BASICA DE SAUDE IRMA ILZA ELIAS,RUA NOROESTE,S/N,NOVO ORIENTE,"RUA NOROESTE, NOVO ORIENTE, SAO MIGUEL DO GUAPORE, RO, BRASIL",-11.69771,-62.71417,"Rua Noroeste, 76932-000, São Miguel do Guaporé","11 41m 51.756s S, 62 42m 51.012s W",76932-000
RO,SAO MIGUEL DO GUAPORE,UNIDADE PRISIONAL DE SAO MIGUEL DO GUAPORE,RUA DOM PEDRO II,2005,CENTRO,"RUA DOM PEDRO II, CENTRO, SAO MIGUEL DO GUAPORE, RO, BRASIL",-11.69536,-62.72027,"Rua Dom Pedro II, 76932-000, São Miguel do Guaporé","11 41m 43.296s S, 62 43m 12.972s W",76932-000
RO,SAO MIGUEL DO GUAPORE,CENTRO DE SAUDE JOSE DIAS DA SILVA,AV MARECHAL RONDON,S/N,CENTRO,"AV MARECHAL RONDON, CENTRO, SAO MIGUEL DO GUAPORE, RO, BRASIL",-11.69644,-62.72189,"Avenida Marechal Rondon, 76932-000, São Miguel do Guaporé","11 41m 47.184s S, 62 43m 18.804s W",76932-000
RO,SAO MIGUEL DO GUAPORE,UNIDADE BASICA DE SAUDE PLANALTO,AVENIDA PRESIDENTE KENNEDY,2081,PLANALTO,"AVENIDA PRESIDENTE KENNEDY, PLANALTO, SAO MIGUEL DO GUAPORE, RO, BRASIL",-11.70236,-62.71412,"Avenida Presidente Kennedy, 76932-000, São Miguel do Guaporé","11 42m 8.496s S, 62 42m 50.832s W",76932-000
RO,SAO MIGUEL DO GUAPORE,CENTRO DE SAUDE JOSE DE BRITO,RUA NOROESTE,S/N,NOVO ORIENTE,"RUA NOROESTE, NOVO ORIENTE, SAO MIGUEL DO GUAPORE, RO, BRASIL",-11.69771,-62.71417,"Rua Noroeste, 76932-000, São Miguel do Guaporé","11 41m 51.756s S, 62 42m 51.012s W",76932-000
RO,SERINGUEIRAS,UNIDADE DE SAUDE DA FAMILIA NOVA VIDA,RUA RUI BARBOSA,685,CENTRO,"RUA RUI BARBOSA, CENTRO, SERINGUEIRAS, RO, BRASIL",-11.77011,-63.03803,"Rua Rui Barbosa, 76934-000, Seringueiras","11 46m 12.396s S, 63 2m 16.908s W",76934-000
RO,SERINGUEIRAS,UNIDADE DE SAUDE NOVO PLANALTO,LINHA 14 KM 12,S/N,DISTRITO NOVO PLANAL,"LINHA 14 KM 12, DISTRITO NOVO PLANAL, SERINGUEIRAS, RO, BRASIL",-11.77749,-63.03978,"Avenida Jorge França Schinaid, 14, 76934-000, Seringueiras","11 46m 38.964s S, 63 2m 23.208s W",76934-000
RO,SERINGUEIRAS,UNIDADE DE SAUDE DA FAMILIA BOM SUCESSO,LINHA 12 KM 9,0,ZONA RURAL,"LINHA 12 KM 9, ZONA RURAL, SERINGUEIRAS, RO, BRASIL",-11.77751,-63.03978,"Avenida Jorge França Schinaid, 12, 76934-000, Seringueiras","11 46m 39.036s S, 63 2m 23.208s W",76934-000
RO,TEIXEIROPOLIS,UNIDADE MISTA DE SAUDE DANIEL HERINGER,RUA DUQUE DE CAXIAS,2473,CENTRO,"RUA DUQUE DE CAXIAS, CENTRO, TEIXEIROPOLIS, RO, BRASIL",-10.93196,-62.2569,"Rua Duque de Caxias, 76928-000, Teixeirópolis","10 55m 55.056s S, 62 15m 24.84s W",76928-000
RO,TEIXEIROPOLIS,UNIDADE BASICA DE SAUDE ESTER DA SILVA ZOTESSO,RUA DUQUE DE CAXIAS,S/N,CENTRO,"RUA DUQUE DE CAXIAS, CENTRO, TEIXEIROPOLIS, RO, BRASIL",-10.93196,-62.2569,"Rua Duque de Caxias, 76928-000, Teixeirópolis","10 55m 55.056s S, 62 15m 24.84s W",76928-000
RO,THEOBROMA,ESF LAGOA NOVA THEOBROMA,LH 06 PA LAGOA NOVA,S/N,ZONA RURAL,"LH 06 PA LAGOA NOVA, ZONA RURAL, THEOBROMA, RO, BRASIL",,,,,
RO,THEOBROMA,ESF SANTO AFONSO THEOBROMA,LIMHA 605 KM 45,S/N,ZONA RURAL,"LIMHA 605 KM 45, ZONA RURAL, THEOBROMA, RO, BRASIL",-23.44947,-51.99993,"Rua João Cardoso de Lima, 605, 87065-150, Maringá","23 26m 58.092s S, 51 59m 59.748s W",87065-150
RO,THEOBROMA,ESF PALMARES DO OESTE THEOBROMA,VILA PALMARES DO OESTE,S/N,ZONA RURAL,"VILA PALMARES DO OESTE, ZONA RURAL, THEOBROMA, RO, BRASIL",-10.72327,-62.249,"Rua Vila Lobos, 76920-000, Ouro Preto do Oeste","10 43m 23.772s S, 62 14m 56.4s W",76920-000
RO,THEOBROMA,ESF URBANO,AV 13 DE FEVEREIRO,1220,CENTRO,"AV 13 DE FEVEREIRO, CENTRO, THEOBROMA, RO, BRASIL",-10.2427,-62.35208,"Avenida 13 de Fevereiro, 13, 76866-959, Theobroma","10 14m 33.72s S, 62 21m 7.488s W",76866-959
RO,THEOBROMA,ESF SAO FRANCISCO XAVIER THEOBROMA,LINHA 599,S/N,ZONA RURAL,"LINHA 599, ZONA RURAL, THEOBROMA, RO, BRASIL",-25.73257,-53.05162,"Linha União Rural, 599, 85660-000, Dois Vizinhos","25 43m 57.252s S, 53 3m 5.832s W",85660-000
RO,URUPA,UBS TERCIO COSTA DA SILVA,AVENIDA BRASIL,S/N,NOVA ALIANCA,"AVENIDA BRASIL, NOVA ALIANCA, URUPA, RO, BRASIL",-10.91366,-62.55828,"Rua Nova Aliança, 76924-000, Nova União","10 54m 49.176s S, 62 33m 29.808s W",76924-000
RO,URUPA,UBS FRANCISCO RAMIRES,BEM TI VI,2305,SUMAUMA,"BEM TI VI, SUMAUMA, URUPA, RO, BRASIL",-11.13304,-62.36783,"Rua Bem-te-vi, 76929-000, Urupá","11 7m 58.944s S, 62 22m 4.188s W",76929-000
RO,URUPA,UBS JOARI DORICO PRIMO,RUA RIO BRANCO,S/N,PRIMAVERA,"RUA RIO BRANCO, PRIMAVERA, URUPA, RO, BRASIL",-11.43659,-61.44341,"Rua Rio Branco, Cacoal","11 26m 11.724s S, 61 26m 36.276s W",
RO,VALE DO ANARI,PS LINHA C 66 JATUARANA VALE DO ANARI,LINHA C 66 KM 20,S/N,ZONA RURAL,"LINHA C 66 KM 20, ZONA RURAL, VALE DO ANARI, RO, BRASIL",-10.43583,-62.1325,"Rua C, 66, 76923-000, Vale do Paraíso","10 26m 8.988s S, 62 7m 57s W",76923-000
RO,VALE DO ANARI,HOSPITAL DE PEQUENO PORTE DE VALE DO ANARI,AV PRESIDENTE DUTRA,4691,CENTRO,"AV PRESIDENTE DUTRA, CENTRO, VALE DO ANARI, RO, BRASIL",-9.86152,-62.17761,"Avenida Presidente Dutra, 76867-000, Vale do Anari","9 51m 41.472s S, 62 10m 39.396s W",76867-000
RO,VALE DO ANARI,PS LINHA MA 04 SAO MARCOS VALE DO ANARI,LINHA MA 04 SAO MARCOS,S/N,ZONA RURAL,"LINHA MA 04 SAO MARCOS, ZONA RURAL, VALE DO ANARI, RO, BRASIL",,,,,
RO,VALE DO ANARI,ESF URBANO,AVENIDA PRESIDENTE DUTRA,4691,CENTRO,"AVENIDA PRESIDENTE DUTRA, CENTRO, VALE DO ANARI, RO, BRASIL",-9.86152,-62.17761,"Avenida Presidente Dutra, 76867-000, Vale do Anari","9 51m 41.472s S, 62 10m 39.396s W",76867-000
RO,VALE DO ANARI,PS LINHA PA 18 LINHA DA BARRAGEM VALE DO ANARI,LINHA PA 18 LINHA DA BARRAGEM,S/N,ZONA RURAL,"LINHA PA 18 LINHA DA BARRAGEM, ZONA RURAL, VALE DO ANARI, RO, BRASIL",,,,,
RO,VALE DO PARAISO,UBS ANA REGINA CORDEIRO,RUA GIRASSOL,4401,SETOR 01,"RUA GIRASSOL, SETOR 01, VALE DO PARAISO, RO, BRASIL",-10.42875,-62.13117,"Rua Girassol, Vale do Paraíso","10 25m 43.5s S, 62 7m 52.212s W",
RO,VALE DO PARAISO,POSTO DE SAUDE DAMIANA BORGES AMORIM,DISTRITO DE SANTA ROSA,S/N,ZONA RURAL,"DISTRITO DE SANTA ROSA, ZONA RURAL, VALE DO PARAISO, RO, BRASIL",-10.42461,-62.13138,"Rua Quatro de Janeiro, 76923-000, Vale do Paraíso","10 25m 28.596s S, 62 7m 52.968s W",76923-000
RO,VALE DO PARAISO,HOSPITAL DE PEQUENO PORTE IZABEL BATISTA DE OLIVEIRA,AVENIDA RONDONIA,1967,SETOR 04,"AVENIDA RONDONIA, SETOR 04, VALE DO PARAISO, RO, BRASIL",-10.42939,-62.12592,"Avenida Rondônia, 76923-000, Vale do Paraíso","10 25m 45.804s S, 62 7m 33.312s W",76923-000
RO,VILHENA,UNIDADE BASICA DE SAUDE VITALINA GENTIL DOS SANTOS,TRAVESSA A,630,SAO JOSE,"TRAVESSA A, SAO JOSE, VILHENA, RO, BRASIL",-12.74695,-60.10843,"Travessa A, 76982-088, Vilhena","12 44m 49.02s S, 60 6m 30.348s W",76982-088
RO,VILHENA,POSTO DE SAUDE PIONEIRO,SETOR 03 RIBEIRO PIRES DE SA,S/N,ZONA RURAL,"SETOR 03 RIBEIRO PIRES DE SA, ZONA RURAL, VILHENA, RO, BRASIL",,,,,
RO,VILHENA,POSTO DE SAUDE NOSSA SENHORA DE LOURDES,LINHA 001,S/N,ZONA RURAL,"LINHA 001, ZONA RURAL, VILHENA, RO, BRASIL",,,,,
RO,VILHENA,UNIDADE BASICA DE SAUDE NOVA CONQUISTA,ESTRADA VELHA DE COLORADO DO OESTE,S/N,ZONA RURAL,"ESTRADA VELHA DE COLORADO DO OESTE, ZONA RURAL, VILHENA, RO, BRASIL",-10.90026,-61.90692,"Rua Colorado d'Oeste, 76907, 76912, 78963, Ji-Paraná","10 54m 0.936s S, 61 54m 24.912s W",76907
RO,VILHENA,UNIDADE BASICA DE SAUDE LEONARDO ALVES DE SOUZA,RUA GENIVAL NUNES DA COSTA,S/N,PARQUE SAO PAULO,"RUA GENIVAL NUNES DA COSTA, PARQUE SAO PAULO, VILHENA, RO, BRASIL",-12.73779,-60.1111,"Rua Genival N. da Costa, 76980-000, Vilhena","12 44m 16.044s S, 60 6m 39.96s W",76980-000
RO,VILHENA,UNIDADE DE SAUDE PRISIONAL FEMININO,AVENIDA ROZALINDA ADELIA MARANGONI,3590,JARDIM AMERICA,"AVENIDA ROZALINDA ADELIA MARANGONI, JARDIM AMERICA, VILHENA, RO, BRASIL",-12.7338769,-60.1425277,"Avenida Rozalinda Adélia Marangoni, Jardim América, Vilhena, Região Geográfica Imediata de Vilhena, Região Geográfica Intermediária de Ji-Paraná, Rondônia, Região Norte, 76980-000, Brasil","12 44m 1.95684s S, 60 8m 33.0997s W",76980-000
RO,VILHENA,UNIDADE BASICA DE SAUDE LIRO HOESEL,AVENIDA 1511,1282,CRISTO REI,"AVENIDA 1511, CRISTO REI, VILHENA, RO, BRASIL",-12.7217835,-60.1446991,"Rua Ignez Rosella, Cristo Rei, Vilhena, Região Geográfica Imediata de Vilhena, Região Geográfica Intermediária de Ji-Paraná, Rondônia, Região Norte, 76980-000, Brasil","12 43m 18.4206s S, 60 8m 40.9168s W",76980-000
RO,VILHENA,UNIDADE BASICA DE SAUDE INDUSTRIAL,AVENIDA TIRADENTES,S/N,INDUSTRIAL,"AVENIDA TIRADENTES, INDUSTRIAL, VILHENA, RO, BRASIL",-12.7519,-60.12222,"Avenida Tiradentes, Vilhena","12 45m 6.84s S, 60 7m 19.992s W",
RO,VILHENA,POSTO DE SAUDE INDIGENA ALDEIA SOWAINTE,ALDEIA SOWAINTE,S/N,AREA RURAL,"ALDEIA SOWAINTE, AREA RURAL, VILHENA, RO, BRASIL",,,,,
RO,VILHENA,UNIDADE BASICA DE SAUDE AFONSO MANSUR DE FRANCA,AVENIDA BRIGADEIRO EDUARDO GOMES,976,JARDIM ELDORADO,"AVENIDA BRIGADEIRO EDUARDO GOMES, JARDIM ELDORADO, VILHENA, RO, BRASIL",-12.742802,-60.123442700000005,"Avenida Brigadeiro Eduardo Gomes, Jardim Eldorado, Vilhena, Região Geográfica Imediata de Vilhena, Região Geográfica Intermediária de Ji-Paraná, Rondônia, Região Norte, 76980-751, Brasil","12 44m 34.0872s S, 60 7m 24.3937s W",76980-751
RO,VILHENA,UNIDADE BASICA DE SAUDE SETOR 19 CARLOS ROBERTO MAZALA,RUA RIO GRANDE DO NORTE,1597,PARQUE INDUSTRIAL NO,"RUA RIO GRANDE DO NORTE, PARQUE INDUSTRIAL NO, VILHENA, RO, BRASIL",-22.37451,-47.39196,"Rua Rio Grande do Norte, 13601-341, Araras","22 22m 28.236s S, 47 23m 31.056s W",13601-341
RO,VILHENA,POSTO DE SAUDE PEROBAL,LOTE 165 KM 15,S/N,ZONA RURAL,"LOTE 165 KM 15, ZONA RURAL, VILHENA, RO, BRASIL",-8.79269,-63.89002,"Rua Zona Franca, 165, 76808-282, Porto Velho","8 47m 33.684s S, 63 53m 24.072s W",76808-282
